companyName,siteName,technology,type,chp,primaryFuel,secondaryFuel,installedCapacity,gridConnectionType,country,region,postcode,osReference,Easting,Northing,yearCommissioned,lat,lon,relevantBMU1,relevantBMU2,relevantBMU3,relevantBMU4,relevantBMU5,relevantBMU6
Falck Renewables SpA,Ben Aketil,Wind,Onshore,No,Wind,,27.6,LV,Scotland,Scotland,,NG311485,132500.0,846500.0,2007,57.42978107,-6.45832649,,,,,,
Vattenfall,Edinbane,Wind,Onshore,No,Wind,,41.4,HV,Scotland,Scotland,,,134353.0,850769.0,2009,57.46910001,-6.43219213,,,,,,
SSE Group,Arnish,Fossil Fuel,Single cycle,No,Diesel/Gas Oil,,10,HV,Scotland,Scotland,,,142229.0,930499.0,2000,58.18771661,-6.38736876,,,,,,
SSE Group,Stornoway,Fossil Fuel,Single cycle,No,Diesel/Gas Oil,,23,HV,Scotland,Scotland,,,143150.0,932158.0,1952,58.20311045,-6.37358071,,,,,,
SSE Group,Clachan,Hydro,Natural Flow,No,Hydro,,40,LV,Scotland,Scotland,,NN192133,148598.006933,866496.66653699998,1955,57.61811113,-6.2116166,,,,,,
SSE Group,Tangy Wind Farm - A,Wind,Onshore,No,Wind,,18.52,LV,Scotland,Scotland,,NR685282,167373.0,626330.0,2002,55.47529607,-5.68253006,,,,,,
Scottish Power,Beinn an Tuirc II,Wind,Onshore,No,Wind,,43.7,HV,Scotland,Scotland,PA286QY,,173950.0,636900.0,2012,55.57316831,-5.58731634,,,,,,
Scottish Power,Beinn an Tuirc I,Wind,Onshore,No,Wind,,29.7,LV,Scotland,Scotland,PA286QY,,173950.0,636900.0,2002,55.57316831,-5.58731634,,,,,,
RWE Npower,Deucheran Hill (RO),Wind,Onshore,No,Wind,,15.8,LV,Scotland,Scotland,,,177000.0,643000.0,2001,55.62927744,-5.54397516,,,,,,
RES Group,Freasdail (GB),Wind,Onshore,No,Wind,,22.5,HV,Scotland,Scotland,PA296XR,,180721.0,660754.0,2017,55.79019143,-5.49921207,,,,,,
RES Group,Cour Wind Farm,Wind,Onshore,No,Wind,,20.5,HV,Scotland,Scotland,PA286QL,,181005.0,648528.0,2017,55.68067482,-5.48489521,,,,,,
Energy Capital Partners,Indian Queens Power Ltd,Fossil Fuel,Single cycle,No,Diesel/Gas Oil,,140,HV,England,South West,,SW940591,191739.0,58385.0,1996,50.38836799,-4.9311684,,,,,,
RWE Npower,Pembroke,Fossil Fuel,CCGT,No,Natural Gas,,2199,HV,Wales,Wales,SA715SS,,193370.0,200137.0,2012,51.66193794,-4.98908859,,,,,,
Venitent Energy Services,A'Chruach,Wind,Onshore,No,Wind,,42.6,HV,Scotland,Scotland,PA318BA,,197742.0,696597.0,2016,56.11913398,-5.25512782,,,,,,
RWE Npower,An Suidhe,Wind,Onshore,No,Wind,,19.3,HV,Scotland,Scotland,,,200483.0,707563.0,2005,56.21865466,-5.21934456,,,,,,
Greencoat Capital,North Rhins,Wind,Onshore,No,Wind,,22,LV,Scotland,Scotland,,,201980.0,557960.0,2009,54.87709,-5.08807169,,,,,,
SSE Group,Inverawe,Hydro,Natural Flow,No,Hydro,,25,LV,Scotland,Scotland,PA351HQ,,202299.54597899999,730929.48161799996,1963,56.42900796,-5.2076397,,,,,,
Scottish Power,Cruach Mhor,Wind,Onshore,No,Wind,,29.75,LV,Scotland,Scotland,PA223AE,,203500.0,687500.0,2004,56.03993111,-5.15598012,,,,,,
SSE Group,"Nant Power Station - A,E",Hydro,Natural Flow,No,Hydro,,15,HV,Scotland,Scotland,,NN016207,203606.80395999999,723291.404201,1963,56.36103966,-5.18075718,,,,,,
Part of Drax Group,Cruachan,Pumped Hydro,Pumped Hydro,No,Pumped hydro,,440,HV,Scotland,Scotland,PA331AN,,207006.0,716929.0,1965,56.30536685,-5.12116149,,,,,,
Scottish Power,Glen App,Wind,Onshore,No,Wind,,22,HV,Scotland,Scotland,KA260PG,,208000.0,573000.0,2017,55.01440125,-5.0044435,,,,,,
SSE Group,"Quoich Power Station - A, E, G",Hydro,Natural Flow,No,Hydro,,18.05,LV,Scotland,Scotland,,NH107012,216881.8432,800852.89049999998,1955,57.06219579,-5.02153803,,,,,,
Scottish Power,Clachan Flats,Wind,Onshore,No,Wind,,15.03,HV,Scotland,Scotland,PA268BJ,,217950.0,714520.0,2009,56.28808261,-4.94287093,,,,,,
EDF Energy,Torness,Nuclear,AGR,No,Nuclear,,1200,HV,Scotland,Scotland,EH421QS,,218252.0,651517.0,1988,55.72287769,-4.8953688,,,,,,
SSE Group,Deanie,Hydro,Natural Flow,No,Hydro,,38,HV,Scotland,Scotland,IV47JX,,219200.00004499999,710099.99998600001,1963,56.24890235,-4.91968015,,,,,,
Scottish Power,Arecleoch,Wind,Onshore,No,Wind,,120,HV,Scotland,Scotland,KA260SJ,,221500.0,578500.0,2010,55.068792,-4.79703349,,,,,,
SSE Group,"Ceannacroc Power Station - A, E",Hydro,Natural Flow,No,Hydro,,16.5,LV,Scotland,Scotland,,NH224108,222745.0,810690.0,1956,57.15273972,-4.93196248,,,,,,
Scottish Power,Kilgallioch,Wind,Onshore,No,Wind,,239,HV,Scotland,Scotland,KA260RF,,223000.0,578000.0,2016,55.06484134,-4.77326237,,,,,,
SSE Group,"Artfield Fell Windfarm - A,C",Wind,Onshore,No,Wind,,28.6,LV,Scotland,Scotland,,NX236659,223005.0,567000.0,2005,54.96611278,-4.76637354,,,,,,
Falck Renewables SpA,Assel Valley,Wind,Onshore,No,Wind,,25,LV,Scotland,Scotland,,NX211938,223370.0,595995.0,2016,55.22648348,-4.77868459,,,,,,
Venitent Energy Services,Ardrossan,Wind,Onshore,No,Wind,,30,LV,Scotland,Scotland,KA227NU,,223500.0,642500.0,2004,55.64389749,-4.8061192,,,,,,
RES Group,Kelburn Wind Farm (GB),Wind,Onshore,No,Wind,,28,LV,Scotland,Scotland,KA245LE,,224000.0,655000.0,2012,55.75625639,-4.80621945,,,,,,
RES Group,Glenchamber Wind Farm (GB),Wind,Onshore,No,Wind,,25.3,LV,Scotland,Scotland,DG80PB,,224474.0,564039.0,2016,54.94005499,-4.74164477,,,,,,
Scottish Power,Mark Hill,Wind,Onshore,No,Wind,,56,HV,Scotland,Scotland,KA260PX,,225000.0,585000.0,2011,55.12837946,-4.74629129,,,,,,
RES Group,Carscreugh,Wind,Onshore,No,Wind,,15.3,HV,Scotland,Scotland,,,225000.0,555000.0,2014,54.85910673,-4.72795044,,,,,,
Falck Renewables SpA,Millennium,Wind,Onshore,No,Wind,,65,HV,Scotland,Scotland,,NH265106,225679.0,810840.0,2008,57.15520879,-4.88363389,,,,,,
WPO UK Services,Airies,Wind,Onshore,No,Wind,,39.9,HV,Scotland,Scotland,,NX2662767127,226000.0,568000.0,2017,54.97614332,-4.72025523,,,,,,
SSE Group,Fasnakyle,Hydro,Natural Flow,No,Hydro,,69,HV,Scotland,Scotland,,NH319296,226977.973512,827215.18281999999,1951,57.30260986,-4.87360171,,,,,,
SSE Group,"Hadyard Hill Windfarm - A,C",Wind,Onshore,No,Wind,,119.8,HV,Scotland,Scotland,,NX279982,227133.0,597446.0,2005,55.24083947,-4.72048404,,,,,,
SSE Group,Glenmoriston,Hydro,Natural Flow,No,Hydro,,37,HV,Scotland,Scotland,IV36YH,,230869.824876,812928.10700800002,1957,57.17588468,-4.79934786,,,,,,
SSE Group,"Grudie Bridge Power Station - A, G",Hydro,Natural Flow,No,Hydro,,18.66,LV,Scotland,Scotland,,NH310624,231315.68004800001,862293.36975099996,1950,57.61894435,-4.82589505,,,,,,
SSE Group,Luichart,Hydro,Natural Flow,No,Hydro,,34,HV,Scotland,Scotland,IV149EW,,231809.687121,862261.33658100001,1954,57.61884176,-4.81761336,,,,,,
SSE Group,Culligran Power Station Unit 2 - A,Hydro,Natural Flow,No,Hydro,,17.1,HV,Scotland,Scotland,,NH378405,231877.310669,839888.30312599998,1962,57.41814304,-4.80105335,,,,,,
SSE Group,"Invergarry Power Station - A,E",Hydro,Natural Flow,No,Hydro,,19.975,HV,Scotland,Scotland,,NH319013,231930.0,801320.0,1956,57.07212146,-4.77403109,,,,,,
Eneco Wind UK,Lochluichart,Wind,Onshore,No,Wind,,69,HV,Scotland,Scotland,,NH333680,232030.0,866235.0,2013,57.65457638,-4.81669659,,,,,,
SSE Group,Sloy,Hydro,Natural Flow,No,Hydro,,152.5,HV,Scotland,Scotland,G837DP,,232178.80345499999,709714.41867299995,1950,56.250201,-4.71023167,,,,,,
SSE Group,"Mossford Power Station - A,G",Hydro,Natural Flow,No,Hydro,,18.66,HV,Scotland,Scotland,,NH330633,233010.426393,863187.36691300001,1957,57.62759544,-4.7981888,,,,,,
EDF Energy,Corriemoillie,Wind,Onshore,No,Wind,,48.45,HV,Scotland,Scotland,IV232PQ,,234700.0,867700.0,2017,57.66870791,-4.77301374,,,,,,
SSE Group,Bhlaraidh Wind Farm,Wind,Onshore,No,Wind,,110.4,HV,Scotland,Scotland,,NH369203,238277.0,816488.0,2017,57.21050047,-4.67929317,,,,,,
SSE Group,Glendoe Hydro Power Station,Hydro,Natural Flow,No,Hydro,,100,HV,Scotland,Scotland,,NH406079,238719.406541,808777.04899200005,2008,57.14146402,-4.66699133,,,,,,
SSE Group,Livishie Power Station - A,Hydro,Natural Flow,No,Hydro,,15,LV,Scotland,Scotland,,NH353160,240245.0,817495.0,1962,57.22022749,-4.64739651,,,,,,
Scottish Power,Dersalloch,Wind,Onshore,No,Wind,,69,HV,Scotland,Scotland,KA197NJ,,242500.0,603500.0,2016,55.30033431,-4.48244122,,,,,,
SSE Group,Fairburn Windfarm,Wind,Onshore,No,Wind,,40,LV,Scotland,Scotland,,NH426534,242550.0,852250.0,2009,57.53289206,-4.6315269,,,,,,
SSE Group,"Torr Achilty Power Station - A,E",Hydro,Natural Flow,No,Hydro,,15,LV,Scotland,Scotland,,NH446545,244418.37481199999,854546.61670599994,1954,57.55414977,-4.60183274,,,,,,
RES Group,Neilston (GB),Wind,Onshore,No,Wind,,10,LV,Scotland,Scotland,G784BZ,,245292.0,653952.0,2018,55.75412548,-4.4667059,,,,,,
SSE Group,Orrin Power Station- A,Hydro,Natural Flow,No,Hydro,,18,HV,Scotland,Scotland,,NH436546,246905.0,851695.0,1959,57.5294064,-4.55852106,,,,,,
SSE Group,Stronelairg Wind Farm,Wind,Onshore,No,Wind,,227.7,HV,Scotland,Scotland,,NH526030,247166.0,806833.0,2018,57.12690819,-4.52636495,,,,,,
SSE Group,"Cassley Power Station - A,C,E",Hydro,Natural Flow,No,Hydro,,10,LV,Scotland,Scotland,,NC396232,247325.0,901540.0,1959,57.97681276,-4.5832512,,,,,,
SSE Group,"Aigas Power Station - A,E",Hydro,Natural Flow,No,Hydro,,20,HV,Scotland,Scotland,,NH474437,247395.0,843655.0,1962,57.45742438,-4.54531771,,,,,,
SSE Group,"Cashlie Power Station - A,C",Hydro,Natural Flow,No,Hydro,,11,LV,Scotland,Scotland,,NN507421,248530.0,741735.0,1959,56.54310914,-4.46513199,,,,,,
SSE Group,"Kilmorack Power Station -A,E",Hydro,Natural Flow,No,Hydro,,20,HV,Scotland,Scotland,,NH494442,249410.0,844225.0,1962,57.46321283,-4.51211945,,,,,,
RWE Npower,Rosehall,Wind,Onshore,No,Wind,,24.7,LV,Scotland,Scotland,,,249550.0,903550.0,2013,57.99560677,-4.54695273,,,,,,
SSE Group,Foyers Pumped Storage,Pumped hydro,Pumped hydro,No,Pumped hydro,,300,HV,Scotland,Scotland,,NH497210,250350.0,821750.0,1974,57.26182879,-4.48279695,,,,,,
SSE Group,Achany Windfarm,Wind,Onshore,No,Wind,,38,LV,Scotland,Scotland,,NC480018,252350.0,904150.0,2010,58.00193004,-4.50001099,,,,,,
Scottish Power,Middleton,Wind,Onshore,No,Wind,,12,LV,Scotland,Scotland,G776PZ,,253158.0,656019.0,2013,55.77513278,-4.34260271,,,,,,
Scottish Power,Whitelee II,Wind,Onshore,No,Wind,,217.02,HV,Scotland,Scotland,KA36EX,,254220.0,640867.0,2012,55.63942604,-4.31761603,,,,,,
RWE Npower,Novar 2,Wind,Onshore,No,Wind,,36.8,HV,Scotland,Scotland,,,255500.0,871500.0,2012,57.70996997,-4.42695544,,,,,,
Venitent Energy Services,Novar,Wind,Onshore,No,Wind,,17,LV,Scotland,Scotland,IV170XJ,,255500.0,871000.0,1997,57.70548292,-4.42665506,,,,,,
Scottish Power,Whitelee I,Wind,Onshore,No,Wind,,322,HV,Scotland,Scotland,KA36EX,,256800.0,645435.0,2007,55.6812038,-4.27904637,,,,,,
SSE Group,Lochay,Hydro,Natural Flow,No,Hydro,,46,HV,Scotland,Scotland,,NN545350,256968.202407,734182.06732699997,1958,56.477956,-4.32387348,,,,,,
SSE Group,"Finlarig Power Station - A,G",Hydro,Natural Flow,No,Hydro,,16.5,HV,Scotland,Scotland,,NN585345,257077.347893,733907.81862599996,1955,56.47552953,-4.32195515,,,,,,
EPUKi,EP Langage Ltd,Fossil Fuel,CCGT,No,Natural Gas,,905,HV,England,South West,PL75AW,,257085.0,56194.0,2010,50.38820228,-4.01178457,,,,,,
SSE Group,"Shin Power Station-A,G",Hydro,Natural Flow,No,Hydro,,18.62,LV,Scotland,Scotland,,NH574974,257261.32734300001,897258.47946900001,1958,57.94168765,-4.41283713,,,,,,
Greencoat Capital,Corriegarth,Wind,Onshore,No,Wind,,69.5,HV,Scotland,Scotland,,,257500.0,813500.0,2017,57.19006874,-4.35963425,,,,,,
WPO UK Services,AOE,Wind,Onshore,No,Wind,,11.5,HV,Scotland,Scotland,,NS5802548945,257717.0,648148.0,2014,55.7058305,-4.26588426,,,,,,
Engie Power,Dinorwig Power Station,Pumped Hydro,Pumped Hydro,No,Pumped hydro,,1800,HV,Wales,Wales,,SH594600,259400.0,360000.0,1984,53.1186033,-4.1023463,,,,,,
Part of Drax Group,Carsfad,Hydro,Natural Flow,No,Hydro,,12,LV,Scotland,Scotland,DG73ST,,259672.544711,584952.22294799995,1935,55.13898549,-4.20295477,,,,,,
Falck Renewables SpA,West Browncastle,Wind,Onshore,No,Wind,,30,LV,Scotland,Scotland,,NS619426,261117.0,642821.0,2014,55.65898987,-4.20912187,,,,,,
Part of Drax Group,Glenlee,Hydro,Natural Flow,No,Hydro,,24,LV,Scotland,Scotland,DG73SF,,261221.35846700001,580243.46073699999,1935,55.09713812,-4.176389,,,,,,
SSE Group,Tummel,Hydro,Natural Flow,No,Hydro,,34,LV,Scotland,Scotland,PH165SB,,261249.15323600001,580838.54599699995,1933,55.10249766,-4.17624138,,,,,,
Part of Drax Group,Earlstoun,Hydro,Natural Flow,No,Hydro,,14,LV,Scotland,Scotland,DG73SR,,261304.67353900001,583126.64510099997,1935,55.12305808,-4.17648126,,,,,,
Part of Drax Group,Kendoon,Hydro,Natural Flow,No,Hydro,,24,LV,Scotland,Scotland,DG73UB,,261359.07337200001,589083.399385,1935,55.176554,-4.1785483,,,,,,
Fred Olsen Renewables,Brockloch Rig 1,Wind,Onshore,No,Wind,,21.6,LV,Scotland,Scotland,,,261500.0,602500.0,1996,55.29706845,-4.18292859,,,,,,
Scottish Power,Beinn Tharsuinn,Wind,Onshore,No,Wind,,29.75,HV,Scotland,Scotland,IV191LH,,261700.0,881900.0,2005,57.80525868,-4.32899545,,,,,,
SSE Group,Dunmaglass Wind Farm,Wind,Onshore,No,Wind,,94.05,HV,Scotland,Scotland,,NH609227,264000.0,820120.0,2016,57.25146438,-4.25579945,,,,,,
Fred Olsen Renewables,Brockloch Rig ,Wind,Onshore,No,Wind,,61.5,HV,Scotland,Scotland,,,265160.0,596516.0,2017,55.24435088,-4.12246035,,,,,,
Scottish Power,Hare Hill I,Wind,Onshore,No,Wind,,13.2,LV,Scotland,Scotland,KA184NW,,265320.0,609703.0,2000,55.36280784,-4.12627241,,,,,,
SSE Group,Rannoch,Hydro,Natural Flow,No,Hydro,,45,LV,Scotland,Scotland,PH173QP,,265618.90567399998,758237.41850399994,1930,56.69644976,-4.19603054,,,,,,
Scottish Power,Hare Hill II,Wind,Onshore,No,Wind,,29.75,HV,Scotland,Scotland,KA184NW,,265931.0,613982.0,2016,55.40139749,-4.11869436,,,,,,
Falck Renewables SpA,Kingsburn,Wind,Onshore,No,Wind,,22.5,LV,Scotland,Scotland,,NS668898,266606.0,686412.0,2016,56.05191393,-4.14339477,,,,,,
Engie Power,Ffestiniog Power Station,Pumped Hydro,Pumped Hydro,No,Pumped hydro,,360,HV,Wales,Wales,,SH679444,267900.0,344400.0,1963,52.98063041,-3.96902114,,,,,,
RES Group,Dungavel,Wind,Onshore,No,Wind,,26,HV,Scotland,Scotland,,,267954.0,636995.0,2015,55.60858592,-4.0977336,,,,,,
The Banks Group,Kype Muir Wind Farm,Wind,Onshore,No,Wind,,88.4,HV,Scotland,Scotland,ML106RE,,268129.0,640258.0,2019,55.63793205,-4.09652119,,,,,,
Engie Power,Blantyre Muir Wind Energy Ltd,Wind,Onshore,No,Wind,,12.3,HV,Scotland,Scotland,G720TR,,268888.0,651781.0,2014,55.74160266,-4.08998791,,,,,,
SSE Group,"St Fillans Power Station - A, G",Hydro,Natural Flow,No,Hydro,,16.83,LV,Scotland,Scotland,,NN691246,269101.60388900002,724133.42061899998,1957,56.39126838,-4.12199327,,,,,,
Falck Renewables SpA,Earlsburn,Wind,Onshore,No,Wind,,37.5,LV,Scotland,Scotland,,NS697882,269652.0,688422.0,2007,56.07080033,-4.09550409,,,,,,
Scottish Power,Wether Hill,Wind,Onshore,No,Wind,,18.2,LV,Scotland,Scotland,DG73UG,,270000.0,594000.0,2007,55.22305698,-4.04522705,,,,,,
Part of Drax Group,Tongland,Hydro,Natural Flow,No,Hydro,,33,LV,Scotland,Scotland,DG64LT,,270138.10144599999,554580.98591599998,1935,54.86909983,-4.02511427,,,,,,
Temporis Capital,Blackcraig,Wind,Onshore,No,Wind,,52.9,HV,Scotland,Scotland,DG73DZ,,270500.0,582500.0,2018,55.11991705,-4.03211006,,,,,,
Engie Power,Scotia Wind (Craigengelt) Ltd,Wind,Onshore,No,Wind,,20,HV,Scotland,Scotland,FK79QS,,272451.0,686495.0,2010,56.05425303,-4.04965547,,,,,,
Greencoat Capital,Braes of Doune Wind Farm,Wind,Onshore,No,Wind,,72,HV,Scotland,Scotland,,,272590.0,710500.0,2007,56.26982074,-4.05892933,,,,,,
Venitent Energy Services,Farr,Wind,Onshore,No,Wind,,92,HV,Scotland,Scotland,IV137ZA,,273500.0,829000.0,2006,57.33390517,-4.10301106,,,,,,
Falck Renewables SpA,Auchrobert,Wind,Onshore,No,Wind,,38.76,LV,Scotland,Scotland,,NS760392,275154.0,638500.0,2017,55.62400189,-3.98419913,,,,,,
Venitent Energy Services,Galawhistle,Wind,Onshore,No,Wind,,66,HV,Scotland,Scotland,ML110SJ,,275443.0,629080.0,2017,55.53948659,-3.97536016,,,,,,
Eneco Wind UK,Moy,Wind,Onshore,No,Wind,,66,LV,Scotland,Scotland,,NH779370,276741.0,835240.0,2016,57.3908093,-4.05233934,,,,,,
Falck Renewables SpA,Kilbraur,Wind,Onshore,No,Wind,,67.5,HV,Scotland,Scotland,,NC788078,278550.0,907550.0,2008,58.04038583,-4.05880876,,,,,,
Scottish Power,Hagshaw Hill II,Wind,Onshore,No,Wind,,26,LV,Scotland,Scotland,ML110RR,,278965.0,630750.0,2008,55.55537033,-3.9203151,,,,,,
Falck Renewables SpA,Nutberry,Wind,Onshore,No,Wind,,15,LV,Scotland,Scotland,,NS777322,279021.0,635662.0,2013,55.59949438,-3.92158096,,,,,,
SSE Group,Errochty,Hydro,Natural Flow,No,Hydro,,75,HV,Scotland,Scotland,PH165SD,,280853.25648699998,765408.19507100002,1955,56.76496977,-3.95077139,,,,,,
SSE Group,Strathy North,Wind,Onshore,No,Wind,,66,HV,Scotland,Scotland,,NC820598,281550.0,957550.0,2015,58.48998939,-4.03359559,,,,,,
Statkraft,Andershaw,Wind,Onshore,No,Wind,,35,HV,Scotland,Scotland,ML126SX,,283500.0,625500.0,2017,55.50932736,-3.84625506,,,,,,
SSE Group,Gordonbush Wind Farm,Wind,Onshore,No,Wind,,70,HV,Scotland,Scotland,,NC826113,284500.0,909500.0,2011,58.05947957,-3.95905512,,,,,,
Greencoat Capital,Tom Nan Clach,Wind,Onshore,No,Wind,,39.1,HV,Scotland,Scotland,,,286500.0,834500.0,2019,57.3867065,-3.88974047,,,,,,
EDF Energy,Burnhead Moss,Wind,Onshore,No,Wind,,26,LV,Scotland,Scotland,FK12JW,,288503.0,671903.0,2016,55.92722504,-3.78600272,,,,,,
EDF Energy,Rhodders,Wind,Onshore,No,Wind,,12.3,LV,Scotland,Scotland,FK147JZ,,288738.0,697461.0,2016,56.15679407,-3.79286128,,,,,,
RWE Npower,Robin Rigg West,Wind,Offshore,No,Wind,,90,HV,Scotland,Scotland,,,288785.0,540522.0,2010,54.7473133,-3.7293062,,,,,,
Part of Drax Group,Bonnington,Hydro,Natural Flow,No,Hydro,,11,LV,Scotland,Scotland,ML119TB,,288851.29212100001,641742.81936800003,1927,55.65645184,-3.76811681,,,,,,
The Banks Group,Middle Muir Wind Farm,Wind,Onshore,No,Wind,,51,HV,Scotland,Scotland,ML126SZ,,288964.0,625283.0,2018,55.50865184,-3.7596975,,,,,,
Scottish Power,Black Law II,Wind,Onshore,No,Wind,,63.43,HV,Scotland,Scotland,ML118EW,,289500.0,653500.0,2016,55.76218685,-3.76255746,,,,,,
EDF Energy,Burnfoot,Wind,Onshore,No,Wind,,30.1,LV,Scotland,Scotland,FK147JZ,,290135.0,703250.0,2010,56.20910339,-3.77277893,,,,,,
Scottish Power,Black Law I,Wind,Onshore,No,Wind,,124.2,HV,Scotland,Scotland,ML118BW,,290998.0,653991.0,2005,55.76693632,-3.73889367,,,,,,
RWE Npower,Robin Rigg East,Wind,Offshore,No,Wind,,84,HV,Scotland,Scotland,,,291005.0,542348.0,2010,54.76420189,-3.69551995,,,,,,
RWE Npower,Gwynt y Mor,Wind,Offshore,No,Wind,,576,HV,Wales,Wales,,SH9482396924,292082.0,396482.0,2013,53.45401958,-3.62665028,,,,,,
Vattenfall,Pen Y Cymoedd,Wind,Onshore,No,Wind,,228,HV,Wales,Wales,,,292879.0,199365.0,2016,51.68279899,-3.55086163,,,,,,
SSE Group,Clunie,Hydro,Natural Flow,No,Hydro,,61.2,HV,Scotland,Scotland,PH165NF,,293345.89585299999,757790.00295600004,1950,56.69959435,-3.74333944,,,,,,
SSE Group,Pitlochry Power Station - A,Hydro,Natural Flow,No,Hydro,,15,HV,Scotland,Scotland,,NN936577,293515.0,757730.0,1950,56.69909416,-3.74055613,,,,,,
SSE Group,Griffin Wind Farm,Wind,Onshore,No,Wind,,188.6,HV,Scotland,Scotland,,NN910427,293600.0,744600.0,2011,56.58121219,-3.73374891,,,,,,
RES Group,Tormywheel,Wind,Onshore,No,Wind,,30.75,LV,Scotland,Scotland,,,294905.0,655232.0,2017,55.7789467,-3.67713235,,,,,,
Venitent Energy Services,Dalswinton,Wind,Onshore,No,Wind,,30,HV,Scotland,Scotland,DG20YB,,295000.0,589000.0,2008,55.18410125,-3.65055797,,,,,,
Orsted,Walney 03,Wind,Offshore,No,Wind,,330,HV,England,North West,,,295033.0,466313.0,2017,54.082009,-3.60599977,,,,,,
Scottish Power,Green Knowes,Wind,Onshore,No,Wind,,27,LV,Scotland,Scotland,FK147YJ,,296850.0,707550.0,2008,56.24922341,-3.66625304,,,,,,
Scottish Power,Harestanes,Wind,Onshore,No,Wind,,136,HV,Scotland,Scotland,DG111TU,,300000.0,595000.0,2013,55.23903322,-3.57419255,,,,,,
Temporis Capital,Muirhall,Wind,Onshore,No,Wind,,12.3,LV,Scotland,Scotland,EH558LN,,300605.0,653760.0,2010,55.76693209,-3.58575982,,,,,,
Orsted,Walney 01,Wind,Offshore,No,Wind,,183,HV,England,North West,,,300833.0,461449.0,2011,54.03945934,-3.5157848,,,,,,
Orsted,Walney 02,Wind,Offshore,No,Wind,,183,HV,England,North West,,,300833.0,461449.0,2012,54.03945934,-3.5157848,,,,,,
EDF Energy,Pearie Law,Wind,Onshore,No,Wind,,19.2,LV,Scotland,Scotland,EH558RT,,302205.0,659690.0,2016,55.82051871,-3.56240119,,,,,,
SSE Group,Clyde Windfarm (North),Wind,Onshore,No,Wind,,197.7,LV,Scotland,Scotland,,NS985240,302500.0,627500.0,2012,55.53145665,-3.54624488,,,,,,
SSE Group,Clyde Windfarm (Central),Wind,Onshore,No,Wind,,195.9,LV,Scotland,Scotland,,NS987202,302500.0,622500.0,2011,55.4865463,-3.54448488,,,,,,
SSE Group,Clyde Windfarm (South),Wind,Onshore,No,Wind,,128.8,LV,Scotland,Scotland,,NS982134,302500.0,617500.0,2011,55.44163558,-3.54272978,,,,,,
Statkraft,Baillie,Wind,Onshore,No,Wind,,53,HV,Scotland,Scotland,KW147EP,,302550.0,965650.0,2013,58.56790727,-3.67702933,,,,,,
Part of PX Group,Fellside CHP,Fossil Fuel,CCGT,Yes,Natural Gas,,105,HV,England,North West,CA201PG,,303202.0,503793.0,1995,54.42033885,-3.49330203,,,,,,
Orsted,West of Duddon Sands,Wind,Offshore,No,Wind,,389,HV,England,North West,,,304230.0,455334.0,2014,53.98516055,-3.46200365,,,,,,
Vattenfall,Ormonde,Wind,Offshore,No,Wind,,150,HV,England,North West,,,306000.0,466842.0,2011,54.08888159,-3.43858613,,,,,,
RES Group,Minnygap (GB),Wind,Onshore,No,Wind,,25,HV,Scotland,Scotland,DG109PX,,307313.0,597397.0,2017,55.26199402,-3.4600182,,,,,,
Venitent Energy Services,Glenkerie,Wind,Onshore,No,Wind,,22,LV,Scotland,Scotland,ML126QL,,310453.0,628117.0,2012,55.53852458,-3.42049179,,,,,,
Fred Olsen Renewables,Pauls Hill,Wind,Onshore,No,Wind,,64.4,LV,Scotland,Scotland,,,311505.0,840495.0,2005,57.44609369,-3.47612094,,,,,,
Statkraft,Berry Burn,Wind,Onshore,No,Wind,,67,HV,Scotland,Scotland,IV362QH,,311550.0,840550.0,2014,57.44659635,-3.47539133,,,,,,
Venitent Energy Services,Causeymire,Wind,Onshore,No,Wind,,48.3,HV,Scotland,Scotland,KW15XR,,312000.0,950000.0,2005,58.42941949,-3.50859732,,,,,,
E.ON,Steven's Croft,Bioenergy,Bioenergy,Yes,Biomass,,46,LV,Scotland,Scotland,,,312100.0,585100.0,2007,55.15240556,-3.38088886,,,,,,
Venitent Energy Services,Minsca,Wind,Onshore,No,Wind,,36.8,HV,Scotland,Scotland,DG112QE,,313821.0,581690.0,2008,55.12207516,-3.35285554,,,,,,
Scottish Power,Ewe Hill II,Wind,Onshore,No,Wind,,36.8,HV,Scotland,Scotland,DG112QG,,315000.0,580000.0,2017,55.10709697,-3.3338687,,,,,,
Scottish Power,Ewe Hill I,Wind,Onshore,No,Wind,,13.8,LV,Scotland,Scotland,DG112QG,,315000.0,580000.0,2016,55.10709697,-3.3338687,,,,,,
Orsted,Burbo Extension ,Wind,Offshore,No,Wind,,259,HV,England,North West,,,315815.0,398892.0,2016,53.48000845,-3.2699996,,,,,,
RWE Npower,Bad a Cheo,Wind,Onshore,No,Wind,,26.65,HV,Scotland,Scotland,,,316615.0,948900.0,2018,58.42044869,-3.42919999,,,,,,
Fred Olsen Renewables,Rothes,Wind,Onshore,No,Wind,,50.6,LV,Scotland,Scotland,,,318400.0,855900.0,2004,57.58572176,-3.36644052,,,,,,
Fred Olsen Renewables,Rothes II,Wind,Onshore,No,Wind,,41.4,LV,Scotland,Scotland,,,318500.0,850500.0,2013,57.53724853,-3.36295579,,,,,,
EPR,EPR Scotland Ltd,Bioenergy,Bioenergy,No,Biomass,Oil,12.5,HV,Scotland,Scotland,KY50HR,,319000.0,695100.0,2000,56.14169436,-3.30510928,,,,,,
Temporis Capital,Tullymurdoch,Wind,Onshore,No,Wind,,14.4,LV,Scotland,Scotland,PH118LH,,319575.0,752228.0,2018,56.65489734,-3.31341464,,,,,,
Venitent Energy Services,Westfield,Wind,Onshore,No,Wind,,10,LV,Scotland,Scotland,KY50HJ,,319640.0,695487.0,2013,56.14527875,-3.29492986,,,,,,
RES Group,Hill of Towie Wind Farm (GB),Wind,Onshore,No,Wind,,48.3,LV,Scotland,Scotland,AB556YU,,320000.0,860000.0,2012,57.62282583,-3.34104328,,,,,,
Orsted,Walney 04,Wind,Offshore,No,Wind,,329,HV,England,North West,,,320039.0,464000.0,2018,54.06571876,-3.223261,,,,,,
EDF Energy,Hinkley Point B,Nuclear,AGR,No,Nuclear,,965,HV,England,South West,TA51UD,,320959.0,143307.0,1976,51.18350311,-3.13226764,,,,,,
Greencoat Capital,Errol,Solar,PV,No,Solar,,12.99942,LV,Scotland,Scotland,PH27NL,,321840.0,721031.0,2016,56.37508161,-3.26709385,,,,,,
SSE Group,Drumderg Windfarm,Wind,Onshore,No,Wind,,36.8,LV,Scotland,Scotland,,NO180538,324500.0,748500.0,2008,56.62223532,-3.23201428,,,,,,
RWE Npower,Camster,Wind,Onshore,No,Wind,,50,LV,Scotland,Scotland,,,325800.0,947400.0,2013,58.40863676,-3.27152122,,,,,,
Eneco Wind UK,Burn of Whilk,Wind,Onshore,No,Wind,,22.5,LV,Scotland,Scotland,,ND293407,326232.0,939965.0,2015,58.34195063,-3.26174396,,,,,,
RWE Npower,Markinch,Bioenergy,Bioenergy,Yes,Biomass,,65,LV,Scotland,Scotland,KY76GU,,327988.0,701561.0,2014,56.2011729,-3.16225648,,,,,,
Uniper UK,Connahs Quay,Fossil Fuel,CCGT,No,Sour Gas,,1380,HV,Wales,Wales,CH54BP,,328878.0,368331.0,1996,53.20728358,-3.06632553,,,,,,
RWE Npower,Bowbeat (Emly Bank) - RO,Wind,Onshore,No,Wind,,15.6,LV,Scotland,Scotland,,,329600.0,647500.0,2002,55.71579014,-3.12213749,,,,,,
Temporis Capital,Craig,Wind,Onshore,No,Wind,,10,HV,Scotland,Scotland,DG130NZ,,331995.0,586055.0,2007,55.16412216,-3.06899427,,,,,,
EDF Energy,Dorenell,Wind,Onshore,No,Wind,,177,HV,Scotland,Scotland,AB554DT,,332000.0,829500.0,2018,57.35088525,-3.13168206,,,,,,
RES Group,Earlseat Wind Farm (GB),Wind,Onshore,No,Wind,,16,LV,Scotland,Scotland,HY14TQ,,332961.0,698416.0,2013,56.17364966,-3.08132625,,,,,,
RWE Npower,Bowbeat (Roughside) - RO,Wind,Onshore,No,Wind,,15.6,LV,Scotland,Scotland,,,333000.0,646200.0,2002,55.70459433,-3.06771187,,,,,,
Calon Energy,Severn Power Ltd,Fossil Fuel,CCGT,No,Natural Gas,,850,LV,England,0,,,333250.0,185006.0,2010,51.55996863,-2.96428603,,,,,,
Greencoat Capital,Stroupster,Wind,Onshore,No,Wind,,29.9,LV,Scotland,Scotland,,,334250.0,966250.0,2015,58.57925147,-3.13238287,,,,,,
Greencoat Capital,Langhope Rig,Wind,Onshore,No,Wind,,16.4,LV,Scotland,Scotland,,,340519.0,615032.0,2013,55.42556285,-2.94136338,,,,,,
EDF Energy,Heysham 2,Nuclear,AGR,No,Nuclear,,1240,HV,England,North West,LA32XH,,341498.0,461449.0,1988,54.04568501,-2.89493708,,,,,,
EDF Energy,Heysham 1,Nuclear,AGR,No,Nuclear,,1060,HV,England,North West,LA32XH,,341498.0,461449.0,1983,54.04568501,-2.89493708,,,,,,
Co-owned by SSE Group and Cheung Kong Infrastructure Ltd,Seabank Power Ltd,Fossil Fuel,CCGT,No,Natural Gas,,1234,HV,England,South West,,,343425.0,161749.0,2000,51.35198362,-2.8137977,T_SEAB-1,T_SEAB-2,,,,
SSE Group,Beatrice Offshore windfarm,Wind,Offshore,No,Wind,,588,HV,Scotland,Scotland,,ND500486,344074.0,911416.0,2018,58.08821465,-2.95016244,T_BEATO-1,T_BEATO-2,T_BEATO-3,T_BEATO-4,,
Scottish Power,Dun Law I,Wind,Onshore,No,Wind,,17.16,LV,Scotland,Scotland,TD26RA,,344600.0,657500.0,2000,55.8075777,-2.88545326,,,,,,
SSE Group,Kirkwall,Fossil Fuel,Single cycle,No,Diesel/Gas Oil,,16,HV,Scotland,Scotland,KW151AN,,344667.0,1010985.0,1952,58.9824051,-2.96435466,,,,,,
SSE Group,Toddleburn Windfarm,Wind,Onshore,No,Wind,,27.6,HV,Scotland,Scotland,,NT433499,345050.0,653150.0,2010,55.76854969,-2.87739519,,,,,,
Engie Power,Cairnborrow Wind Energy Ltd,Wind,Onshore,No,Wind,,10.25,HV,Scotland,Scotland,AB544XP,,346153.0,841867.0,2017,57.46385334,-2.89924054,,,,,,
Scottish Power,Dun Law II,Wind,Onshore,No,Wind,,29.75,HV,Scotland,Scotland,TD26RA,,346582.0,657530.0,2009,55.808071,-2.85384149,,,,,,
EDF Energy,Longpark,Wind,Onshore,No,Wind,,38,LV,Scotland,Scotland,TD12SW,,348050.0,642050.0,2009,55.66915931,-2.8274732,,,,,,
Vattenfall,Clashindarroch,Wind,Onshore,No,Wind,,36.9,HV,Scotland,Scotland,,,348214.0,839951.0,2015,57.4468853,-2.86448366,,,,,,
Intergen,Rocksavage Power Company Ltd ,Fossil Fuel,CCGT,No,Natural Gas,,810,HV,England,North West,,,352414.0,377661.0,1998,53.29377446,-2.71537072,,,,,,
EDF Energy,Fallago Rig,Wind,Onshore,No,Wind,,144,HV,Scotland,Scotland,TD36NW,,357000.0,660000.0,2013,55.83130491,-2.68803206,,,,,,
Greencoat Capital,Kildrummy,Wind,Onshore,No,Wind,,18.4,LV,Scotland,Scotland,,,357655.0,815170.0,2013,57.22528325,-2.7029346,,,,,,
SSE Group,Spurness Wind Farm II,Wind,Onshore,No,Wind,,10,LV,Scotland,Scotland,,HY606356,360531.0,1033828.0,2012,59.18928988,-2.69252249,,,,,,
RES Group,Glens of Foudland,Wind,Onshore,No,Wind,,26,LV,Scotland,Scotland,,,361496.0,837303.0,2009,57.4244249,-2.6427882,,,,,,
Falck Renewables SpA,Boyndie,Wind,Onshore,No,Wind,,16.3,LV,Scotland,Scotland,,NJ613641,364000.0,862000.0,2006,57.64645709,-2.60476044,,,,,,
Fred Olsen Renewables,Crystal Rig II,Wind,Onshore,No,Wind,,138,HV,Scotland,Scotland,,,367000.0,667500.0,2003,55.8994773,-2.5293173,,,,,,
Fred Olsen Renewables,Crystal Rig,Wind,Onshore,No,Wind,,62.5,LV,Scotland,Scotland,,,368000.0,667000.0,2003,55.89505277,-2.51326682,,,,,,
Fred Olsen Renewables,Crystal Rig III,Wind,Onshore,No,Wind,,13.8,HV,Scotland,Scotland,,,368562.0,672486.0,2016,55.94437752,-2.504921,,,,,,
Fred Olsen Renewables,Mid Hill,Wind,Onshore,No,Wind,,75.9,LV,Scotland,Scotland,,,370540.0,786500.0,2013,56.96876183,-2.48616933,,,,,,
Venitent Energy Services,Gordonstown Hill,Wind,Onshore,No,Wind,,12.5,LV,Scotland,Scotland,AB538LH,,371136.0,841396.0,2013,57.46190585,-2.48276411,,,,,,
RES Group,Black Hill Wind Farm,Wind,Onshore,No,Wind,,28.6,LV,Scotland,Scotland,,NT730555,373000.0,656300.0,2007,55.79922498,-2.43224999,,,,,,
ESB,Carrington Power,Fossil Fuel,CCGT,No,Natural Gas,,910,HV,England,North West,M314AY,,373287.0,393037.0,2016,53.43344854,-2.40353795,,,,,,
Eneco Wind UK,Twinshiels,Wind,Onshore,No,Wind,,25,LV,Scotland,Scotland,,NO757723,375955.0,771728.0,2014,56.83637826,-2.395705,,,,,,
Cubico Sustainable Investments,Penmanshiel ,Wind,Onshore,No,Wind,,28.7,LV,Scotland,Scotland,TD113RP,,380006.0,667129.0,2016,55.89686253,-2.32130336,,,,,,
RES Group,Meikle Carewe Wind Farm (GB),Wind,Onshore,No,Wind,,10.2,LV,Scotland,Scotland,AB393QH,,383200.0,792000.0,2013,57.01880367,-2.27832027,,,,,,
Greencoat Capital,Drone Hill,Wind,Onshore,No,Wind,,28.6,LV,Scotland,Scotland,,,383719.0,667227.0,2012,55.89788408,-2.26193527,,,,,,
Eneco Wind UK,Tullo,Wind,Onshore,No,Wind,,17.5,LV,Scotland,Scotland,,NO757723,387283.0,785873.0,2010,56.96389535,-2.21076584,,,,,,
Vattenfall,Aberdeen,Wind,Offshore,No,Wind,,96.8,HV,Scotland,Scotland,,,395748.0,814283.0,2018,57.21926094,-2.07205272,,,,,,
SSE Group,Peterhead,Fossil Fuel,CCGT,No,Natural Gas,,1180,HV,Scotland,Scotland,AB423BZ,,412790.0,843093.0,1980,57.47789808,-1.78837877,T_PEHE-1,,,,,
EPUKi,Lynemouth Power Limited,Bioenergy,Bioenergy,No,Biomass,,420,HV,England,North East,NE639NW,,429850.0,590374.0,2018,55.20672642,-1.53251863,,,,,,
Scira Offshore Energy,Hywind BMU 1,Wind,Offshore,No,Wind,,30,HV,Scotland,Scotland,,,433500.0,846500.0,2017,57.50745151,-1.44257917,,,,,,
Marchwood Power,Marchwood Power,Fossil Fuel,CCGT,No,Natural Gas,,898,HV,England,South East,SO404BD,,438274.0,108147.0,2009,50.87155325,-1.45742667,,,,,,
SSE Group,Lerwick,Fossil Fuel,Single cycle,No,Diesel/Gas Oil,,67,LV,Scotland,Scotland,ZE10PS,,446456.0,1142790.0,1953,60.16693802,-1.16472474,,,,,,
RWE Npower,Cowes,Fossil Fuel,Single cycle,No,Diesel/Gas Oil,,140,LV,England,South East,PO326JF,,448472.0,93554.0,1982,50.73956923,-1.31442661,,,,,,
Uniper UK,Ratcliffe (Steam),Fossil Fuel,Conventional steam,No,Coal,,2021,HV,England,East Midlands,NG110EE,,449969.0,327738.0,1967,52.84485779,-1.25953138,,,,,,
RWE Npower,Didcot B,Fossil Fuel,CCGT,No,Natural Gas,,1450,HV,England,South East,OX117YU,,451077.0,182210.0,1998,51.53649152,-1.26495901,,,,,,
RWE Npower,Didcot GT,Fossil Fuel,Single cycle,No,Diesel/Gas Oil,,100,HV,England,South East,OX117YU,,451077.0,182210.0,1972,51.53649152,-1.26495901,,,,,,
EDF Energy,Hartlepool,Nuclear,AGR,No,Nuclear,,1185,HV,England,North East,TS252BZ,,451747.0,531078.0,1983,54.67213389,-1.19913357,,,,,,
Sembcorp Utilities,Wilton International ,Fossil Fuel,Conventional steam,Yes,Natural Gas,Oil,120,HV,England,North East,TS908WS,,458275.0,517359.0,1952,54.54815128,-1.1006436,,,,,,
Part of Drax Group,Drax Power Station Biomass Units,Bioenergy,Bioenergy,No,Biomass,,2640,HV,England,Yorkshire and the Humber,YO88PH,,466650.0,427050.0,2013,53.73560866,-0.99110085,,,,,,
Uniper UK,Cottam Development Centre,Fossil Fuel,CCGT,No,Natural Gas,,445,HV,England,East Midlands,DN220TF,,470307.0,378332.0,1998,53.29730894,-0.9465812,,,,,,
RWE Npower,Staythorpe,Fossil Fuel,CCGT,No,Natural Gas,,1828,HV,England,East Midlands,NG235RQ,,475532.0,351265.0,2010,53.05333653,-0.87458192,,,,,,
UK Transition Limited,West Burton CCGT,Fossil Fuel,CCGT,No,Natural Gas,,1332,HV,England,East Midlands,DN229BL,,479368.0,384538.0,2013,53.35180358,-0.8091114,,,,,,
SSE Group,Keadby,Fossil Fuel,CCGT,No,Natural Gas,,735,HV,England,East Midlands,DN173EF,,483280.0,411671.0,1982,53.59502801,-0.74317655,,,,,,
ESB,Corby Power Station,Fossil Fuel,CCGT,No,Natural Gas,,407,HV,England,East Midlands,,,488447.0,266932.0,1994,52.29342317,-0.70455331,,,,,,
Energy Capital Partners,Saltend Power Station,Fossil Fuel,CCGT,Yes,Natural Gas,,1200,HV,England,Yorkshire and the Humber,HU128GA,,509793.0,428825.0,2000,53.74426977,-0.33668998,,,,,,
Uniper UK,Killingholme,Fossil Fuel,Single cycle,No,Natural Gas,,600,HV,England,Yorkshire and the Humber,DN403LU,,516717.0,419816.0,1992,53.66183339,-0.2351444,,,,,,
Vitol,VPI,Fossil Fuel,CCGT,Yes,Natural Gas,,1268,HV,England,Yorkshire and the Humber,DN403DZ,,518189.0,412390.0,2004,53.5947896,-0.21569489,,,,,,
River Nene,Peterborough Power Station,Fossil Fuel,Single cycle,No,Natural Gas,,245,HV,England,East of England,PE15NT,,518401.0,299217.0,1993,52.57790601,-0.25411953,,,,,,
RWE Npower,Little Barford,Fossil Fuel,CCGT,No,Natural Gas,,723,HV,England,East of England,PE196YT,,519049.0,256838.0,1995,52.19694436,-0.25959711,,,,,,
EPUKi,EP SHB LTD,Fossil Fuel,CCGT,No,Natural Gas,,1365,HV,England,Yorkshire and the Humber,DN418BZ,,520457.0,409164.0,1997,53.56529316,-0.18268895,,,,,,
Vitol,Shoreham,Fossil Fuel,CCGT,No,Natural Gas,,420,LV,England,South East,BN411WF,,521488.0,105110.0,2000,50.83277644,-0.27618469,,,,,,
Uniper UK,Taylors Lane,Fossil Fuel,Single cycle,No,Diesel/Gas Oil,,144,HV,England,London,NW108JP,,524680,195111.0,1979,51.64099271,-0.19958016,,,,,,
Intergen,Spalding Energy Company Ltd,Fossil Fuel,CCGT,No,Natural Gas,,950,HV,England,East Midlands,,,524944.0,320245.0,2004,52.76538181,-0.14965056,,,,,,
RWE Npower,Rampion,Wind,Offshore,No,Wind,,400.2,HV,England,South East,,,525000.0,95000.0,2018,50.74115749,-0.22977664,,,,,,
RWE Npower,Humber Gateway,Wind,Offshore,No,Wind,,219,HV,England,Yorkshire and the Humber,,,528439.0,411181.0,2015,53.58152245,-0.06141389,,,,,,
Uniper UK,Enfield,Fossil Fuel,CCGT,No,Natural Gas,,408,HV,England,London,EN37PL,,532446.0,190691.0,1999,51.59949919,-0.08908604,,,,,,
Vitol,Rye House,Fossil Fuel,CCGT,No,Natural Gas,,715,HV,England,East of England,EN110RF,,538365.0,209811.0,1993,51.76988754,0.00389356,,,,,,
Orsted,Westermost Rough,Wind,Offshore,No,Wind,,210,HV,England,Yorkshire and the Humber,,,541677.0,436555.0,2015,53.80601984,0.14997952,,,,,,
Intergen,Coryton Energy Company Ltd,Fossil Fuel,CCGT,No,Natural Gas,,800,HV,England,South East,,,565166.0,178798.0,2002,51.48402031,0.37736627,,,,,,
Orsted,Lincs,Wind,Offshore,No,Wind,,270,HV,England,East Midlands,,,567020.0,368144.0,2013,53.18419943,0.49808158,,,,,,
Orsted,Race Bank,Wind,Offshore,No,Wind,,573,HV,England,East of England,,,573300.0,363000.0,2018,53.13600125,0.58918094,,,,,,
Scira Offshore Energy,Dudgeon BMU 1,Wind,Offshore,No,Wind,,108,HV,England,East of England,,,575000.0,361000.0,2017,53.11748711,0.61347532,,,,,,
Scira Offshore Energy,Dudgeon BMU 3,Wind,Offshore,No,Wind,,102,HV,England,East of England,,,575000.0,361000.0,2017,53.11748711,0.61347532,,,,,,
Scira Offshore Energy,Dudgeon BMU 4,Wind,Offshore,No,Wind,,102,HV,England,East of England,,,575000.0,361000.0,2017,53.11748711,0.61347532,,,,,,
Vitol,Damhead Creek,Fossil Fuel,CCGT,No,Natural Gas,,805,HV,England,South East,ME39TX,,581973.0,173211.0,2000,51.42868402,0.61628863,,,,,,
SSE Group,Medway,Fossil Fuel,CCGT,No,Natural Gas,,755,HV,England,South East,ME30AG,,586916.0,174008.0,1995,51.43423591,0.68773067,T_MEDP-1,,,,,
Uniper UK,Grain,Fossil Fuel,CCGT,Yes,Natural Gas,,1365,HV,England,South East,ME30AR,,588672.0,172826.0,2011,51.42303828,0.7123346,,,,,,
Scira Offshore Energy,Sheringham Shoal BMU 1,Wind,Offshore,No,Wind,,158,HV,England,East of England,,,610671.0,364425.0,2012,53.13534561,1.14793366,,,,,,
Scira Offshore Energy,Sheringham Shoal BMU 2,Wind,Offshore,No,Wind,,158,HV,England,East of England,,,610671.0,364425.0,2012,53.13534561,1.14793366,,,,,,
Orsted,Gunfleet Sands 01,Wind,Offshore,No,Wind,,108,HV,England,South East,,,622317.0,208468.0,2010,51.7308284,1.21804238,,,,,,
Orsted,Hornsea 01,Wind,Offshore,No,Wind,,1218,HV,England,North East,,,626000.0,426000.0,2019,53.68156264,1.42073694,,,,,,
RWE Npower,London Array,Wind,Offshore,No,Wind,,630,HV,England,South East,,TM459013,642078.0,197218.0,2013,51.62168982,1.49585898,,,,,,
RWE Npower,Galloper,Wind,Offshore,No,Wind,,352.8,HV,England,East of England,,TM7796929898,646316.0,262379.0,2017,52.20456991,1.60351695,,,,,,
EDF Energy,Sizewell B,Nuclear,PWR,No,Nuclear,,1198,HV,England,East of England,IP164UR,,647453.0,260420.0,1995,52.18648383,1.6186928,,,,,,
RWE Npower,Great Yarmouth,Fossil Fuel,CCGT,No,Natural Gas,,420,LV,England,East of England,NR303PY,,652534.0,307744.0,2001,52.60874276,1.72850748,,,,,,
Vattenfall,Thanet ,Wind,Offshore,No,Wind,,300,HV,England,South East,,,652658.0,176367.0,2010,51.42994052,1.63343848,,,,,,
SSE Group,Greater Gabbard,Wind,Offshore,No,Wind,,504,HV,England,East of England,,TM714315,670237.0,231640.0,2011,51.91765992,1.92845459,GRGBW-1,GRGBW-2,GRGBW-3,,,
SSE Group,Loch Carnan,Fossil Fuel,Single cycle,No,Diesel/Gas Oil,,11,HV,Scotland,Scotland,,,83233.0,842636.0,1972,57.36357422,-7.27050337,,,,,,
SSE Group and Equinor,Dogger Bank A,Wind,Offshore,No,Wind,,12000,,England,North East,,,,,2024,54.8333333,2.33333333,,,,,,
Anesco,Langley Priory,Solar,PV,No,Solar,,2036,HV,England,East Midlands,DE74 2QQ,,,,2016,,,,,,,,
Orsted,Hornsea 02,Wind,Offshore,No,Wind,,1386,,England,East Midlands,,,,,2022,,,,,,,,
SSE Group,Seagreen,Wind,Offshore,No,Wind,,1075,,Scotland,Scotland,,NO399369,,,2022,56.6355,-1.9266,T_SGRWO-1,T_SGRWO-2,T_SGRWO-3,T_SGRWO-4,T_SGRWO-5,T_SGRWO-6
Moray Offshore Windfarm (West) Ltd,Moray Offshore Windfarm Wast Limited,Wind,Offshore,No,Wind,,950,,Scotland,Scotland,,,,,2021,58.097,-3.007,,,,,,
Moray Offshore Windfarm (East) Ltd,Moray Offshore Windfarm East Limited,Wind,Offshore,No,Wind,,950,,Scotland,Scotland,AB43 9BR,,,,2021,58.188,-2.721,,,,,,
RWE Npower,Triton Knoll,Wind,Offshore,No,Wind,,857,HV,England,Yorkshire and the Humber,,TA 25405 11338,,,2021,,,,,,,,
SSE Group,Keadby 2,Fossil Fuel,CCGT,,Natural Gas,,840,,England,East Midlands,,,,,2023,,,T_KEAD-2,,,,,
Scottish Power,East Anglia One,Wind,Offshore,No,Wind,,714,HV,England,East of England,,,,,2019,,,,,,,,
RWE Npower,Kings Lynn,Fossil Fuel,CCGT,No,Natural Gas,,395,LV,England,East of England,PE343RD,,,,1997,,,,,,,,
Intergen,Spalding Expansion OCGT ,Fossil Fuel,CCGT,,Natural Gas,,300,,England,East Midlands,PE11 3BB,,,,2019,,,,,,,,
Greencoat Capital,South Kyle,Wind,Onshore,No,Wind,,240,,Scotland,Scotland,,,,,2023,,,,,,,,
RES Group,Beinneun Wind Farm,Wind,Onshore,No,Wind,,108.8,LV,Scotland,Scotland,IV637YV,,,,2017,,,,,,,,
River Nene,Heartlands,Fossil Fuel,Single cycle,,Natural Gas,,100,,England,West Midlands,B249FQ,,,,1998,,,,,,,,
Community Wind Power,Aikengall IIA,Wind,Onshore,No,Wind,,81.7,,Scotland,Scotland,,,,,2021,,,,,,,,
The Banks Group,Kype Extension Wind Farm,Wind,Onshore,No,Wind,,67.2,,Scotland,Scotland,ML10 6RE,,,,2024,,,,,,,,
Community Wind Power,Aikengall II,Wind,Onshore,No,Wind,,60.8,,Scotland,Scotland,,,,,2017,,,,,,,,
Scottish Power,Beinn an Tuirc III,Wind,Onshore,No,Wind,,49.95,,Scotland,Scotland,IV19 1LH,,,,2021,,,,,,,,
Greencoat Capital,Glen Kyllachy,Wind,Onshore,No,Wind,,48.5,HV,Scotland,Scotland,,,,,2021,,,,,,,,
Community Wind Power,Aikengall,Wind,Onshore,No,Wind,,48,,Scotland,Scotland,,,,,2009,,,,,,,,
RES Group,Crossdykes Wind Farm,Wind,Onshore,No,Wind,,48,,Scotland,Scotland,DG11 2QL ,,,,2021,,,,,,,,
SSE Group,Gordonbush Ext,Wind,Onshore,No,Wind,,47.3,HV,Scotland,Scotland,,NC826113,,,2021,,,,,,,,
Lightsource BP,Teyrdan CIC,Solar,PV,No,Solar,,45.91605,,,,,,,,2016,,,,,,,,
Lightsource BP,Teyrdan SPV,Solar,PV,No,Solar,,45.91605,,,,,,,,2016,,,,,,,,
Greencoat Capital,Douglas West,Wind,Onshore,No,Wind,,44.85,LV,Scotland,Scotland,,,,,2014,,,,,,,,
Greencoat Capital,Windy Rig,Wind,Onshore,No,Wind,,43.2,HV,Scotland,Scotland,,,,,2021,,,,,,,,
Greencoat Capital,Dalquhandy,Wind,Onshore,No,Wind,,42,,Scotland,Scotland,,,,,2023,,,,,,,,
Community Wind Power,Calder Water,Wind,Onshore,No,Wind,,39,,Scotland,Scotland,,,,,2013,,,,,,,,
Greencoat Capital,TwentyShilling Hill,Wind,Onshore,No,Wind,,37.8,LV,Scotland,Scotland,,,,,2015,,,,,,,,
RES Group,Blary Hill,Wind,Onshore,No,Wind,,35,HV,Scotland,Scotland,PA29 6UZ,,,,2022,,,,,,,,
RES Group,Churchtown Farm Solar,Solar,PV,No,Solar,,31.59,,,,,,,,2015,,,,,,,,
Community Wind Power,Sanquhar,Wind,Onshore,No,Wind,,31.05,,Scotland,Scotland,,,,,2018,,,,,,,,
RES Group,Solwaybank,Wind,Onshore,No,Wind,,30.4,HV,Scotland,Scotland,DG11 3HG,EN329579,,,2020,,,,,,,,
EDF Energy,West Benhar,Wind,Onshore,No,Wind,,30.1,,Scotland,Scotland,,,,,2023,,,,,,,,
Scottish Power,Halsary,Wind,Onshore,No,Wind,,30,HV,Scotland,Scotland,KW126UW,,,,2020,,,,,,,,
Capital Dynamics UK,Whiteside Hill,Wind,Onshore,No,Wind,,28.5,HV,Scotland,Scotland,DG4 6LF,,,,2018,,,,,,,,
WPO UK Services,Quixwood Moor,Wind,Onshore,No,Wind,,26.65,,Scotland,Scotland,,NT 76067 64408,,,2017,,,,,,,,
Lightsource BP,Arkwright SPV,Solar,PV,No,Solar,,26.001155,,,,,,,,2016,,,,,,,,
RES Group,Little Raith (GB),Wind,Onshore,No,Wind,,24.8,LV,Scotland,Scotland,KY50AX,,,,2020,,,,,,,,
Lightsource BP,Laceby CIC2,Solar,PV,No,Solar,,24.602465,,,,,,,,2017,,,,,,,,
Community Wind Power,Millour Hill,Wind,Onshore,No,Wind,,18,,Scotland,Scotland,,,,,2012,,,,,,,,
Community Wind Power,Wardlaw Wood,Wind,Onshore,No,Wind,,18,,Scotland,Scotland,,,,,2006,,,,,,,,
Lightsource BP,Firs Road CIC1,Solar,PV,No,Solar,,14.402485,,,,,,,,2017,,,,,,,,
WPO UK Services,Pates Hill,Wind,Onshore,No,Wind,,14,,Scotland,Scotland,,NT 00099 59791,,,2010,,,,,,,,
Capital Dynamics UK,Sorbie,Wind,Onshore,No,Wind,,12.6,,Scotland,Scotland,,"55.658546, -4.791289",,,2023,,,,,,,,
Capital Dynamics UK,Falkirk Tod Hill,Wind,Onshore,No,Wind,,12.3,HV,Scotland,Scotland,FK5 4SJ,,,,2016,,,,,,,,
WPO UK Services,Dummuies,Wind,Onshore,No,Wind,,12.25,LV,Scotland,Scotland,,NJ5635836050,,,2007,,,,,,,,
EDF Energy,Burnfoot East,Wind,Onshore,No,Wind,,10.8,LV,Scotland,Scotland,FK147JZ,,,,2020,,,,,,,,
,,,,,,,,,,,,,,,,,,,,,,,
,,,,,,,,,,,,,,,,,,,,,,,
,,,,,,,,,,,,,,,,,,,,,,,
,,,,,,,,,,,,,,,,,,,,,,,
,,,,,,,,,,,,,,,,,,,,,,,
,,,,,,,,,,,,,,,,,,,,,,,
