companyName,siteName,technology,type,chp,primaryFuel,secondaryFuel,installedCapacity,gridConnectionType,country,region,postcode,osReference,Easting,Northing,yearCommissioned,lon,lat,bmus,bmus,bmus,bmus,bmus,bmus
Part of Drax Group,Drax Power Station Biomass Units,Bioenergy,Bioenergy,No,Biomass,,2640,HV,England,Yorkshire and the Humber,YO88PH,,466650,427050,2013,-0.99110085,53.73560866,T_DRAXX-1,T_DRAXX-2,T_DRAXX-3,T_DRAXX-4,T_DRAXX-5,T_DRAXX-6
RWE Npower,Pembroke,Fossil Fuel,CCGT,No,Natural Gas,,2199,HV,Wales,Wales,SA715SS,,193370,200137,2012,-4.98908859,51.66193794,T_PEMB-11,T_PEMB-21,T_PEMB-31,T_PEMB-41,T_PEMB-51,
RWE Npower,Staythorpe,Fossil Fuel,CCGT,No,Natural Gas,,1828,HV,England,East Midlands,NG235RQ,,475532,351265,2010,-0.87458192,53.05333653,T_STAY-1,T_STAY-2,T_STAY-3,T_STAY-4,,
Engie Power,Dinorwig Power Station,Pumped Hydro,Pumped Hydro,No,Pumped hydro,,1800,HV,Wales,Wales,,SH594600,259400,360000,1984,-4.1023463,53.1186033,T_DINO-1,T_DINO-2,T_DINO-3,T_DINO-4,T_DINO-5,T_DINO-6
RWE Npower,Didcot B,Fossil Fuel,CCGT,No,Natural Gas,,1450,HV,England,South East,OX117YU,,451077,182210,1998,-1.26495901,51.53649152,T_DIDCB5,T_DIDCB6,,,,
Orsted,Hornsea 02,Wind,Offshore,No,Wind,,1386,,England,East Midlands,,,,,2022,1.4208,53.6815,T_HOWBO-1,T_HOWBO-2,T_HOWBO-3,,,
Uniper UK,Connahs Quay,Fossil Fuel,CCGT,No,Natural Gas,,1380,HV,Wales,Wales,CH54BP,,328878,368331,1996,-3.06632553,53.20728358,T_CNQPS-1,T_CNQPS-2,T_CNQPS-3,T_CNQPS-4,,
Uniper UK,Grain,Fossil Fuel,CCGT,Yes,Natural Gas,,1365,HV,England,South East,ME30AR,,588672,172826,2011,0.7123346,51.42303828,T_GRAI-6,T_GRAI-7,T_GRAI-8,,,
EPUKi,EP SHB LTD,Fossil Fuel,CCGT,No,Natural Gas,,1365,HV,England,Yorkshire and the Humber,DN418BZ,,520457,409164,1997,-0.18268895,53.56529316,T_SHBA-1,T_SHBA-2,,,,
UK Transition Limited,West Burton CCGT,Fossil Fuel,CCGT,No,Natural Gas,,1332,HV,England,East Midlands,DN229BL,,479368,384538,2013,-0.8091114,53.35180358,T_WBURB-1,T_WBURB-2,T_WBURB-3,,,
Vitol,VPI,Fossil Fuel,CCGT,Yes,Natural Gas,,1268,HV,England,Yorkshire and the Humber,DN403DZ,,518189,412390,2004,-0.21569489,53.5947896,T_HUMR-1,,,,,
EDF Energy,Heysham 2,Nuclear,AGR,No,Nuclear,,1240,HV,England,North West,LA32XH,,341498,461449,1988,-2.89493708,54.04568501,T_HEYM27,T_HEYM28,,,,
Co-owned by SSE Group and Cheung Kong Infrastructure Ltd,Seabank Power Ltd,Fossil Fuel,CCGT,No,Natural Gas,,1234,HV,England,South West,,,343425,161749,2000,-2.8137977,51.35198362,T_SEAB-1,T_SEAB-2,,,,
Orsted,Hornsea 01,Wind,Offshore,No,Wind,,1218,HV,England,North East,,,626000,426000,2019,1.4207,53.6815,T_HOWAO-1,T_HOWAO-2,T_HOWAO-3,,,
SSE Group and Equinor,Dogger Bank A,Wind,Offshore,No,Wind,,1200,,England,North East,,,,,2024,2.33333333,54.8333333,T_DBAWO-1,T_DBAWO-2,T_DBAWO-3,T_DBAWO-4,T_DBAWO-5,
Energy Capital Partners,Saltend Power Station,Fossil Fuel,CCGT,Yes,Natural Gas,,1200,HV,England,Yorkshire and the Humber,HU128GA,,509793,428825,2000,-0.33668998,53.74426977,T_SCCL-1,T_SCCL-2,T_SCCL-3,,,
EDF Energy,Torness,Nuclear,AGR,No,Nuclear,,1200,HV,Scotland,Scotland,EH421QS,,218252,651517,1988,-2.409,55.968,T_TORN-1,T_TORN-2,,,,
EDF Energy,Sizewell B,Nuclear,PWR,No,Nuclear,,1198,HV,England,East of England,IP164UR,,647453,260420,1995,1.6186928,52.18648383,T_SIZB-1,T_SIZB-2,,,,
EDF Energy,Hartlepool,Nuclear,AGR,No,Nuclear,,1185,HV,England,North East,TS252BZ,,451747,531078,1983,-1.19913357,54.67213389,T_HRTL-1,T_HRTL-2,,,,
SSE Group,Peterhead,Fossil Fuel,CCGT,No,Natural Gas,,1180,HV,Scotland,Scotland,AB423BZ,,412790,843093,1980,-1.78837877,57.47789808,T_PEHE-1,,,,,
SSE Group,Seagreen,Wind,Offshore,No,Wind,,1075,,Scotland,Scotland,,NO399369,,,2022,-1.9266,56.6355,T_SGRWO-1,T_SGRWO-2,T_SGRWO-3,T_SGRWO-4,T_SGRWO-5,T_SGRWO-6
EDF Energy,Heysham 1,Nuclear,AGR,No,Nuclear,,1060,HV,England,North West,LA32XH,,341498,461449,1983,-2.89493708,54.04568501,T_HEYM11,T_HEYM12,,,,
EDF Energy,Hinkley Point B,Nuclear,AGR,No,Nuclear,,965,HV,England,South West,TA51UD,,320959,143307,1976,-3.13226764,51.18350311,T_HINB-7,T_HINB-8,,,,
Intergen,Spalding Energy Company Ltd,Fossil Fuel,CCGT,No,Natural Gas,,950,HV,England,East Midlands,,,524944,320245,2004,-0.14965056,52.76538181,T_SPLN-1,,,,,
Moray Offshore Windfarm (East) Ltd,Moray Offshore Windfarm East Limited,Wind,Offshore,No,Wind,,950,,Scotland,Scotland,AB43 9BR,,,,2021,-2.721,58.188,T_MOWEO-1,T_MOWEO-2,T_MOWEO-3,,,
Moray Offshore Windfarm (West) Ltd,Moray Offshore Windfarm West Limited,Wind,Offshore,No,Wind,,950,,Scotland,Scotland,,,,,2021,-3.007,58.097,T_MOWWO-1,T_MOWWO-2,T_MOWWO-3,T_MOWWO-4,,
ESB,Carrington Power,Fossil Fuel,CCGT,No,Natural Gas,,910,HV,England,North West,M314AY,,373287,393037,2016,-2.40353795,53.43344854,T_CARR-1,T_CARR-2,,,,
EPUKi,EP Langage Ltd,Fossil Fuel,CCGT,No,Natural Gas,,905,HV,England,South West,PL75AW,,257085,56194,2010,-4.01178457,50.38820228,T_LAGA-1,,,,,
Marchwood Power,Marchwood Power,Fossil Fuel,CCGT,No,Natural Gas,,898,HV,England,South East,SO404BD,,438274,108147,2009,-1.45742667,50.87155325,T_MRWD-1,,,,,
RWE Npower,Triton Knoll,Wind,Offshore,No,Wind,,857,HV,England,Yorkshire and the Humber,,TA 25405 11338,,,2021,0.839,53.478,T_TKNEW-1,T_TKNWW-1,,,,
Calon Energy,Severn Power Ltd,Fossil Fuel,CCGT,No,Natural Gas,,850,LV,England,0,,,333250,185006,2010,-2.96428603,51.55996863,T_SVRP-10,T_SVRP-20,,,,
SSE Group,Keadby 2,Fossil Fuel,CCGT,,Natural Gas,,840,,England,East Midlands,,,,,2023,-0.75044,53.59444,T_KEAD-2,,,,,
Intergen,Rocksavage Power Company Ltd ,Fossil Fuel,CCGT,No,Natural Gas,,810,HV,England,North West,,,352414,377661,1998,-2.71537072,53.29377446,T_ROCK-1,,,,,
Vitol,Damhead Creek,Fossil Fuel,CCGT,No,Natural Gas,,805,HV,England,South East,ME39TX,,581973,173211,2000,0.61628863,51.42868402,T_DAMC-1,,,,,
Intergen,Coryton Energy Company Ltd,Fossil Fuel,CCGT,No,Natural Gas,,800,HV,England,South East,,,565166,178798,2002,0.37736627,51.48402031,T_COSO-1,,,,,
SSE Group,Medway,Fossil Fuel,CCGT,No,Natural Gas,,755,HV,England,South East,ME30AG,,586916,174008,1995,0.68773067,51.43423591,T_MEDP-1,,,,,
SSE Group,Keadby,Fossil Fuel,CCGT,No,Natural Gas,,735,HV,England,East Midlands,DN173EF,,483280,411671,1982,-0.74317655,53.59502801,T_KEAD-1,,,,,
RWE Npower,Little Barford,Fossil Fuel,CCGT,No,Natural Gas,,723,HV,England,East of England,PE196YT,,519049,256838,1995,-0.25959711,52.19694436,T_LBAR-1,T_LBAR-1G,,,,
Vitol,Rye House,Fossil Fuel,CCGT,No,Natural Gas,,715,HV,England,East of England,EN110RF,,538365,209811,1993,0.00389356,51.76988754,,,,,,
Scottish Power,East Anglia One,Wind,Offshore,No,Wind,,714,HV,England,East of England,,,,,2019,2.493585,52.228299,T_EAAO-1,T_EAAO-2,,,,
RWE Npower,London Array,Wind,Offshore,No,Wind,,630,HV,England,South East,,TM459013,642078,197218,2013,1.49585898,51.62168982,T_LARYW-1,T_LARYW-2,T_LARYW-3,T_LARYW-4,,
Uniper UK,Killingholme,Fossil Fuel,Single cycle,No,Natural Gas,,600,HV,England,Yorkshire and the Humber,DN403LU,,516717,419816,1992,-0.2351444,53.66183339,,,,,,
SSE Group,Beatrice Offshore windfarm,Wind,Offshore,No,Wind,,588,HV,Scotland,Scotland,,ND500486,344074,911416,2018,-2.95016244,58.08821465,T_BEATO-1,T_BEATO-2,T_BEATO-3,T_BEATO-4,,
RWE Npower,Gwynt y Mor,Wind,Offshore,No,Wind,,576,HV,Wales,Wales,,SH9482396924,292082,396482,2013,-3.62665028,53.45401958,T_GYMR-15,T_GYMR-17,T_GYMR-26,T_GYMR-28,,
Orsted,Race Bank,Wind,Offshore,No,Wind,,573,HV,England,East of England,,,573300,363000,2018,0.58918094,53.13600125,T_RCBKO-1,T_RCBKO-2,,,,
SSE Group,Greater Gabbard,Wind,Offshore,No,Wind,,504,HV,England,East of England,,TM714315,670237,231640,2011,1.92845459,51.91765992,T_GRGBW-1,T_GRGBW-2,T_GRGBW-3,,,
Uniper UK,Cottam Development Centre,Fossil Fuel,CCGT,No,Natural Gas,,445,HV,England,East Midlands,DN220TF,,470307,378332,1998,-0.9465812,53.29730894,,,,,,
SSE Group,Viking Windfarm,Wind,Onshore,No,Wind,,443,HV,Scotland,Scotland,,,,,,-1.206,60.351,T_VKNGW-1,T_VKNGW-2,T_VKNGW-3,T_VKNGW-4,,
Part of Drax Group,Cruachan,Pumped Hydro,Pumped Hydro,No,Pumped hydro,,440,HV,Scotland,Scotland,PA331AN,,207006,716929,1965,-5.12116149,56.30536685,T_CRUA-1,T_CRUA-2,T_CRUA-3,T_CRUA-4,,
RWE Npower,Great Yarmouth,Fossil Fuel,CCGT,No,Natural Gas,,420,LV,England,East of England,NR303PY,,652534,307744,2001,1.72850748,52.60874276,E_GYAR-1,,,,,
Vitol,Shoreham,Fossil Fuel,CCGT,No,Natural Gas,,420,LV,England,South East,BN411WF,,521488,105110,2000,-0.27618469,50.83277644,E_SHOS-1,,,,,
EPUKi,Lynemouth Power Limited,Bioenergy,Bioenergy,No,Biomass,,420,HV,England,North East,NE639NW,,429850,590374,2018,-1.53251863,55.20672642,E_LYNE1,E_LYNE2,E_LYNE3,,,
Uniper UK,Enfield,Fossil Fuel,CCGT,No,Natural Gas,,408,HV,England,London,EN37PL,,532446,190691,1999,-0.08908604,51.59949919,T_EECL-1,,,,,
ESB,Corby Power Station,Fossil Fuel,CCGT,No,Natural Gas,,407,HV,England,East Midlands,,,488447,266932,1994,-0.70455331,52.29342317,E_CORB-1,,,,,
RWE Npower,Rampion,Wind,Offshore,No,Wind,,400.2,HV,England,South East,,,525000,95000,2018,-0.22977664,50.74115749,T_RMPNO-1,T_RMPNO-2,,,,
RWE Npower,Kings Lynn,Fossil Fuel,CCGT,No,Natural Gas,,395,LV,England,East of England,PE343RD,,,,1997,0.380117,52.727256,E_KLYN-A-1,,,,,
Orsted,West of Duddon Sands,Wind,Offshore,No,Wind,,389,HV,England,North West,,,304230,455334,2014,-3.46200365,53.98516055,T_WDNSO-1,T_WDNSO-2,,,,
Engie Power,Ffestiniog Power Station,Pumped Hydro,Pumped Hydro,No,Pumped hydro,,360,HV,Wales,Wales,,SH679444,267900,344400,1963,-3.96902114,52.98063041,T_FFES-1,T_FFES-2,T_FFES-3,T_FFES-4,,
RWE Npower,Galloper,Wind,Offshore,No,Wind,,352.8,HV,England,East of England,,TM7796929898,646316,262379,2017,1.60351695,52.20456991,T_GANW-11,T_GANW-22,T_GANW-13,T_GANW-24,,
Orsted,Walney 03,Wind,Offshore,No,Wind,,330,HV,England,North West,,,295033,466313,2017,-3.60599977,54.082009,T_WLNYO-3,,,,,
Orsted,Walney 04,Wind,Offshore,No,Wind,,329,HV,England,North West,,,320039,464000,2018,-3.223261,54.06571876,T_WLNYO-4,T_WLNYO-4,,,,
Scottish Power,Whitelee I,Wind,Onshore,No,Wind,,322,HV,Scotland,Scotland,KA36EX,,256800,645435,2007,-4.27904637,55.6812038,T_WHILW-1,,,,,
Vattenfall,Thanet ,Wind,Offshore,No,Wind,,300,HV,England,South East,,,652658,176367,2010,1.63343848,51.42994052,T_THNTO-1,T_THNTO-2,,,,
Intergen,Spalding Expansion OCGT ,Fossil Fuel,CCGT,,Natural Gas,,300,,England,East Midlands,PE11 3BB,,,,2019,-0.13334,52.80721,T_SEEL-1,,,,,
SSE Group,Foyers Pumped Storage,Pumped hydro,Pumped hydro,No,Pumped hydro,,300,HV,Scotland,Scotland,,NH497210,250350,821750,1974,-4.48279695,57.26182879,T_FOYE-1,T_FOYE-2,,,,
Orsted,Lincs,Wind,Offshore,No,Wind,,270,HV,England,East Midlands,,,567020,368144,2013,0.49808158,53.18419943,T_LNCSW-1,T_LNCSW-2,,,,
Orsted,Burbo Extension ,Wind,Offshore,No,Wind,,259,HV,England,North West,,,315815,398892,2016,-3.2699996,53.48000845,T_BRBEO-1,,,,,
River Nene,Peterborough Power Station,Fossil Fuel,Single cycle,No,Natural Gas,,245,HV,England,East of England,PE15NT,,518401,299217,1993,-0.25411953,52.57790601,E_PETEM1,,,,,
Greencoat Capital,South Kyle,Wind,Onshore,No,Wind,,240,,Scotland,Scotland,,,,,2023,-4.2932,55.3173,T_SOKYW-1,,,,,
Scottish Power,Kilgallioch,Wind,Onshore,No,Wind,,239,HV,Scotland,Scotland,KA260RF,,223000,578000,2016,-4.77326237,55.06484134,T_KLGLW-1,,,,,
Vattenfall,Pen Y Cymoedd,Wind,Onshore,No,Wind,,228,HV,Wales,Wales,,,292879,199365,2016,-3.55086163,51.68279899,T_PNYCW-1,,,,,
SSE Group,Stronelairg Wind Farm,Wind,Onshore,No,Wind,,227.7,HV,Scotland,Scotland,,NH526030,247166,806833,2018,-4.52636495,57.12690819,T_STLGW-1,T_STLGW-2,T_STLGW-3,,,
RWE Npower,Humber Gateway,Wind,Offshore,No,Wind,,219,HV,England,Yorkshire and the Humber,,,528439,411181,2015,-0.06141389,53.58152245,T_HMGTO-1,T_HMGTO-2,,,,
Scottish Power,Whitelee II,Wind,Onshore,No,Wind,,217.02,HV,Scotland,Scotland,KA36EX,,254220,640867,2012,-4.31761603,55.63942604,T_WHILW-2,,,,,
Orsted,Westermost Rough,Wind,Offshore,No,Wind,,210,HV,England,Yorkshire and the Humber,,,541677,436555,2015,0.14997952,53.80601984,T_WTMSO-1,,,,,
SSE Group,Clyde Windfarm (North),Wind,Onshore,No,Wind,,197.7,LV,Scotland,Scotland,,NS985240,302500,627500,2012,-3.54624488,55.53145665,T_CLDNW-1,,,,,
SSE Group,Clyde Windfarm (Central),Wind,Onshore,No,Wind,,195.9,LV,Scotland,Scotland,,NS987202,302500,622500,2011,-3.54448488,55.4865463,T_CLDCW-1,,,,,
SSE Group,Griffin Wind Farm,Wind,Onshore,No,Wind,,188.6,HV,Scotland,Scotland,,NN910427,293600,744600,2011,-3.73374891,56.58121219,T_GRIFW-1,,,,,
Orsted,Walney 01,Wind,Offshore,No,Wind,,183,HV,England,North West,,,300833,461449,2011,-3.5157848,54.03945934,T_WLNYW-1,,,,,
Orsted,Walney 02,Wind,Offshore,No,Wind,,183,HV,England,North West,,,300833,461449,2012,-3.5157848,54.03945934,T_WLNYO-2,,,,,
EDF Energy,Dorenell,Wind,Onshore,No,Wind,,177,HV,Scotland,Scotland,AB554DT,,332000,829500,2018,-3.13168206,57.35088525,T_DOREW-1,T_DOREW-2,,,,
Scira Offshore Energy,Sheringham Shoal BMU 1,Wind,Offshore,No,Wind,,158,HV,England,East of England,,,610671,364425,2012,1.14793366,53.13534561,T_SHRSW-1,,,,,
Scira Offshore Energy,Sheringham Shoal BMU 2,Wind,Offshore,No,Wind,,158,HV,England,East of England,,,610671,364425,2012,1.14793366,53.13534561,T_SHRSW-2,,,,,
SSE Group,Sloy,Hydro,Natural Flow,No,Hydro,,152.5,HV,Scotland,Scotland,G837DP,,232178.8035,709714.4187,1950,-4.71023167,56.250201,M_SLOY-1,T_SLOY-2,T_SLOY-3,M_SLOY-4,,
Vattenfall,Ormonde,Wind,Offshore,No,Wind,,150,HV,England,North West,,,306000,466842,2011,-3.43858613,54.08888159,,,,,,
Uniper UK,Taylors Lane,Fossil Fuel,Single cycle,No,Diesel/Gas Oil,,144,HV,England,London,NW108JP,,524680,195111,1979,-0.19958016,51.64099271,,,,,,
EDF Energy,Fallago Rig,Wind,Onshore,No,Wind,,144,HV,Scotland,Scotland,TD36NW,,357000,660000,2013,-2.68803206,55.83130491,T_FALGW-1,,,,,
RWE Npower,Cowes,Fossil Fuel,Single cycle,No,Diesel/Gas Oil,,140,LV,England,South East,PO326JF,,448472,93554,1982,-1.31442661,50.73956923,,,,,,
Energy Capital Partners,Indian Queens Power Ltd,Fossil Fuel,Single cycle,No,Diesel/Gas Oil,,140,HV,England,South West,,SW940591,191739,58385,1996,-4.9311684,50.38836799,,,,,,
Fred Olsen Renewables,Crystal Rig II,Wind,Onshore,No,Wind,,138,HV,Scotland,Scotland,,,367000,667500,2003,-2.5293173,55.8994773,T_CRYRW-2,,,,,
Scottish Power,Harestanes,Wind,Onshore,No,Wind,,136,HV,Scotland,Scotland,DG111TU,,300000,595000,2013,-3.57419255,55.23903322,T_HRSTW-1,,,,,
SSE Group,Clyde Windfarm (South),Wind,Onshore,No,Wind,,128.8,LV,Scotland,Scotland,,NS982134,302500,617500,2011,-3.54272978,55.44163558,T_CLDSW-1,,,,,
Scottish Power,Black Law I,Wind,Onshore,No,Wind,,124.2,HV,Scotland,Scotland,ML118BW,,290998,653991,2005,-3.73889367,55.76693632,T_ARCHW-1,,,,,
Sembcorp Utilities,Wilton International ,Fossil Fuel,Conventional steam,Yes,Natural Gas,Oil,120,HV,England,North East,TS908WS,,458275,517359,1952,-1.1006436,54.54815128,,,,,,
Scottish Power,Arecleoch,Wind,Onshore,No,Wind,,120,HV,Scotland,Scotland,KA260SJ,,221500,578500,2010,-4.79703349,55.068792,T_BLLA-1,,,,,
SSE Group,"Hadyard Hill Windfarm - A,C",Wind,Onshore,No,Wind,,119.8,HV,Scotland,Scotland,,NX279982,227133,597446,2005,-4.72048404,55.24083947,T_HADHW-1,,,,,
SSE Group,Bhlaraidh Wind Farm,Wind,Onshore,No,Wind,,110.4,HV,Scotland,Scotland,,NH369203,238277,816488,2017,-4.67929317,57.21050047,T_BHLAW-1,,,,,
RES Group,Beinneun Wind Farm,Wind,Onshore,No,Wind,,108.8,LV,Scotland,Scotland,IV637YV,,,,2017,-4.9655,57.0956,T_BEINW-1,,,,,
Orsted,Gunfleet Sands 01,Wind,Offshore,No,Wind,,108,HV,England,South East,,,622317,208468,2010,1.21804238,51.7308284,,,,,,
Scira Offshore Energy,Dudgeon BMU 1,Wind,Offshore,No,Wind,,108,HV,England,East of England,,,575000,361000,2017,0.61347532,53.11748711,,,,,,
Boralex,Limekiln Windfarm,Wind,Onshore,No,Wind,,106,HV,Scotland,Scotland,,,,,2025,-3.7615,58.5592,T_LIMKW-1,,,,,
Part of PX Group,Fellside CHP,Fossil Fuel,CCGT,Yes,Natural Gas,,105,HV,England,North West,CA201PG,,303202,503793,1995,-3.49330203,54.42033885,,,,,,
Scira Offshore Energy,Dudgeon BMU 3,Wind,Offshore,No,Wind,,102,HV,England,East of England,,,575000,361000,2017,0.61347532,53.11748711,,,,,,
Scira Offshore Energy,Dudgeon BMU 4,Wind,Offshore,No,Wind,,102,HV,England,East of England,,,575000,361000,2017,0.61347532,53.11748711,,,,,,
RWE Npower,Didcot GT,Fossil Fuel,Single cycle,No,Diesel/Gas Oil,,100,HV,England,South East,OX117YU,,451077,182210,1972,-1.26495901,51.53649152,,,,,,
River Nene,Heartlands,Fossil Fuel,Single cycle,,Natural Gas,,100,,England,West Midlands,B249FQ,,,,1998,1.834,52.614,,,,,,
SSE Group,Glendoe Hydro Power Station,Hydro,Natural Flow,No,Hydro,,100,HV,Scotland,Scotland,,NH406079,238719.4065,808777.049,2008,-4.66699133,57.14146402,T_GLNDO-1,,,,,
Vattenfall,Aberdeen,Wind,Offshore,No,Wind,,96.8,HV,Scotland,Scotland,,,395748,814283,2018,-2.07205272,57.21926094,T_ABRBO-1,,,,,
SSE Group,Dunmaglass Wind Farm,Wind,Onshore,No,Wind,,94.05,HV,Scotland,Scotland,,NH609227,264000,820120,2016,-4.25579945,57.25146438,T_DUNGW-1,,,,,
Venitent Energy Services,Farr,Wind,Onshore,No,Wind,,92,HV,Scotland,Scotland,IV137ZA,,273500,829000,2006,-4.10301106,57.33390517,T_FARR-1,T_FARR-2,,,,
RWE Npower,Robin Rigg West,Wind,Offshore,No,Wind,,90,HV,Scotland,Scotland,,,288785,540522,2010,-3.7293062,54.7473133,T_RRWW-1,,,,,
The Banks Group,Kype Muir Wind Farm,Wind,Onshore,No,Wind,,88.4,HV,Scotland,Scotland,ML106RE,,268129,640258,2019,-4.09652119,55.63793205,T_KPMRW-1,,,,,
RWE Npower,Robin Rigg East,Wind,Offshore,No,Wind,,84,HV,Scotland,Scotland,,,291005,542348,2010,-3.69551995,54.76420189,T_RREW-1,,,,,
Community Wind Power,Aikengall IIA,Wind,Onshore,No,Wind,,81.7,,Scotland,Scotland,,,,,2021,-3.210626,55.947533,T_AKGLW-2,,,,,
Fred Olsen Renewables,Mid Hill,Wind,Onshore,No,Wind,,75.9,LV,Scotland,Scotland,,,370540,786500,2013,-2.48616933,56.96876183,,,,,,
SSE Group,Errochty,Hydro,Natural Flow,No,Hydro,,75,HV,Scotland,Scotland,PH165SD,,280853.2565,765408.1951,1955,-3.95077139,56.76496977,T_ERRO-1,T_ERRO-2,T_ERRO-3,,,
Foresight Solar & Infrastructure VCT,Shotwick Solar Park,Solar,PV,No,Solar,,72.2,,Wales,,,,,,,-3.018,53.239,,,,,,
Greencoat Capital,Braes of Doune Wind Farm,Wind,Onshore,No,Wind,,72,HV,Scotland,Scotland,,,272590,710500,2007,-4.05892933,56.26982074,E_BRDUW-1,,,,,
SSE Group,Gordonbush Wind Farm,Wind,Onshore,No,Wind,,70,HV,Scotland,Scotland,,NC826113,284500,909500,2011,-3.95905512,58.05947957,T_GORDW-1,,,,,
Greencoat Capital,Corriegarth,Wind,Onshore,No,Wind,,69.5,HV,Scotland,Scotland,,,257500,813500,2017,-4.35963425,57.19006874,,,,,,
Scottish Power,Dersalloch,Wind,Onshore,No,Wind,,69,HV,Scotland,Scotland,KA197NJ,,242500,603500,2016,-4.48244122,55.30033431,,,,,,
Eneco Wind UK,Lochluichart,Wind,Onshore,No,Wind,,69,HV,Scotland,Scotland,,NH333680,232030,866235,2013,-4.81669659,57.65457638,,,,,,
SSE Group,Fasnakyle,Hydro,Natural Flow,No,Hydro,,69,HV,Scotland,Scotland,,NH319296,226977.9735,827215.1828,1951,-4.87360171,57.30260986,,,,,,
Falck Renewables SpA,Kilbraur,Wind,Onshore,No,Wind,,67.5,HV,Scotland,Scotland,,NC788078,278550,907550,2008,-4.05880876,58.04038583,,,,,,
The Banks Group,Kype Extension Wind Farm,Wind,Onshore,No,Wind,,67.2,,Scotland,Scotland,ML10 6RE,,,,2024,-4.04836111,55.63236111,,,,,,
SSE Group,Lerwick,Fossil Fuel,Single cycle,No,Diesel/Gas Oil,,67,LV,Scotland,Scotland,ZE10PS,,446456,1142790,1953,-1.16472474,60.16693802,,,,,,
Statkraft,Berry Burn,Wind,Onshore,No,Wind,,67,HV,Scotland,Scotland,IV362QH,,311550,840550,2014,-3.47539133,57.44659635,,,,,,
Venitent Energy Services,Galawhistle,Wind,Onshore,No,Wind,,66,HV,Scotland,Scotland,ML110SJ,,275443,629080,2017,-3.97536016,55.53948659,,,,,,
SSE Group,Strathy North,Wind,Onshore,No,Wind,,66,HV,Scotland,Scotland,,NC820598,281550,957550,2015,-4.03359559,58.48998939,,,,,,
Eneco Wind UK,Moy,Wind,Onshore,No,Wind,,66,LV,Scotland,Scotland,,NH779370,276741,835240,2016,-4.05233934,57.3908093,E_MOYEW-1,,,,,
RWE Npower,Markinch,Bioenergy,Bioenergy,Yes,Biomass,,65,LV,Scotland,Scotland,KY76GU,,327988,701561,2014,-3.16225648,56.2011729,,,,,,
Falck Renewables SpA,Millennium,Wind,Onshore,No,Wind,,65,HV,Scotland,Scotland,,NH265106,225679,810840,2008,-4.88363389,57.15520879,,,,,,
Fred Olsen Renewables,Pauls Hill,Wind,Onshore,No,Wind,,64.4,LV,Scotland,Scotland,,,311505,840495,2005,-3.47612094,57.44609369,,,,,,
Scottish Power,Black Law II,Wind,Onshore,No,Wind,,63.43,HV,Scotland,Scotland,ML118EW,,289500,653500,2016,-3.76255746,55.76218685,,,,,,
Fred Olsen Renewables,Crystal Rig,Wind,Onshore,No,Wind,,62.5,LV,Scotland,Scotland,,,368000,667000,2003,-2.51326682,55.89505277,,,,,,
Fred Olsen Renewables,Brockloch Rig ,Wind,Onshore,No,Wind,,61.5,HV,Scotland,Scotland,,,265160,596516,2017,-4.12246035,55.24435088,,,,,,
SSE Group,Clunie,Hydro,Natural Flow,No,Hydro,,61.2,HV,Scotland,Scotland,PH165NF,,293345.8959,757790.003,1950,-3.74333944,56.69959435,,,,,,
Community Wind Power,Aikengall II,Wind,Onshore,No,Wind,,60.8,,Scotland,Scotland,,,,,2017,-2.4901,55.9172,,,,,,
Scottish Power,Mark Hill,Wind,Onshore,No,Wind,,56,HV,Scotland,Scotland,KA260PX,,225000,585000,2011,-4.74629129,55.12837946,,,,,,
Statkraft,Baillie,Wind,Onshore,No,Wind,,53,HV,Scotland,Scotland,KW147EP,,302550,965650,2013,-3.67702933,58.56790727,,,,,,
Temporis Capital,Blackcraig,Wind,Onshore,No,Wind,,52.9,HV,Scotland,Scotland,DG73DZ,,270500,582500,2018,-4.03211006,55.11991705,,,,,,
The Banks Group,Middle Muir Wind Farm,Wind,Onshore,No,Wind,,51,HV,Scotland,Scotland,ML126SZ,,288964,625283,2018,-3.7596975,55.50865184,,,,,,
Fred Olsen Renewables,Rothes,Wind,Onshore,No,Wind,,50.6,LV,Scotland,Scotland,,,318400,855900,2004,-3.36644052,57.58572176,,,,,,
RWE Npower,Camster,Wind,Onshore,No,Wind,,50,LV,Scotland,Scotland,,,325800,947400,2013,-3.27152122,58.40863676,,,,,,
Scottish Power,Beinn an Tuirc III,Wind,Onshore,No,Wind,,49.95,,Scotland,Scotland,IV19 1LH,,,,2021,-5.5874,55.5732,,,,,,
Greencoat Capital,Glen Kyllachy,Wind,Onshore,No,Wind,,48.5,HV,Scotland,Scotland,,,,,2021,-4.1415,57.3323,T_GLNKW-1,,,,,
EDF Energy,Corriemoillie,Wind,Onshore,No,Wind,,48.45,HV,Scotland,Scotland,IV232PQ,,234700,867700,2017,-4.77301374,57.66870791,,,,,,
RES Group,Hill of Towie Wind Farm (GB),Wind,Onshore,No,Wind,,48.3,LV,Scotland,Scotland,AB556YU,,320000,860000,2012,-3.34104328,57.62282583,,,,,,
Venitent Energy Services,Causeymire,Wind,Onshore,No,Wind,,48.3,HV,Scotland,Scotland,KW15XR,,312000,950000,2005,-3.50859732,58.42941949,,,,,,
Community Wind Power,Aikengall,Wind,Onshore,No,Wind,,48,,Scotland,Scotland,,,,,2009,-2.4901,55.9172,,,,,,
RES Group,Crossdykes Wind Farm,Wind,Onshore,No,Wind,,48,,Scotland,Scotland,DG11 2QL ,,,,2021,-3.1698,55.1939,,,,,,
SSE Group,Gordonbush Ext,Wind,Onshore,No,Wind,,47.3,HV,Scotland,Scotland,,NC826113,,,2024,-3.95905512,58.05947957,T_GORDW-2,,,,,
E.ON,Steven's Croft,Bioenergy,Bioenergy,Yes,Biomass,,46,LV,Scotland,Scotland,,,312100,585100,2007,-3.38088886,55.15240556,,,,,,
SSE Group,Lochay,Hydro,Natural Flow,No,Hydro,,46,HV,Scotland,Scotland,,NN545350,256968.2024,734182.0673,1958,-4.32387348,56.477956,,,,,,
Lightsource BP,Teyrdan CIC,Solar,PV,No,Solar,,45.91605,,,,,,,,2016,-3.686,53.268,,,,,,
Lightsource BP,Teyrdan SPV,Solar,PV,No,Solar,,45.91605,,,,,,,,2016,-3.586,53.268,,,,,,
SSE Group,Rannoch,Hydro,Natural Flow,No,Hydro,,45,LV,Scotland,Scotland,PH173QP,,265618.9057,758237.4185,1930,-4.19603054,56.69644976,,,,,,
Greencoat Capital,Douglas West,Wind,Onshore,No,Wind,,44.85,LV,Scotland,Scotland,,,,,2014,-3.8901,55.5874,,,,,,
Scottish Power,Beinn an Tuirc II,Wind,Onshore,No,Wind,,43.7,HV,Scotland,Scotland,PA286QY,,173950,636900,2012,-5.58731634,55.57316831,,,,,,
Greencoat Capital,Windy Rig,Wind,Onshore,No,Wind,,43.2,HV,Scotland,Scotland,,,,,2021,-4.13918,55.23289,,,,,,
Venitent Energy Services,A'Chruach,Wind,Onshore,No,Wind,,42.6,HV,Scotland,Scotland,PA318BA,,197742,696597,2016,-5.25512782,56.11913398,,,,,,
Greencoat Capital,Dalquhandy,Wind,Onshore,No,Wind,,42,,Scotland,Scotland,,,,,2023,0,0,,,,,,
Fred Olsen Renewables,Rothes II,Wind,Onshore,No,Wind,,41.4,LV,Scotland,Scotland,,,318500,850500,2013,-3.36295579,57.53724853,,,,,,
Vattenfall,Edinbane,Wind,Onshore,No,Wind,,41.4,HV,Scotland,Scotland,,,134353,850769,2009,-6.43219213,57.46910001,,,,,,
SSE Group,Fairburn Windfarm,Wind,Onshore,No,Wind,,40,LV,Scotland,Scotland,,NH426534,242550,852250,2009,-4.6315269,57.53289206,,,,,,
SSE Group,Clachan,Hydro,Natural Flow,No,Hydro,,40,LV,Scotland,Scotland,,NN192133,148598.0069,866496.6665,1955,-5.583,56.3,,,,,,
WPO UK Services,Airies,Wind,Onshore,No,Wind,,39.9,HV,Scotland,Scotland,,NX2662767127,226000,568000,2017,-4.72025523,54.97614332,,,,,,
Greencoat Capital,Tom Nan Clach,Wind,Onshore,No,Wind,,39.1,HV,Scotland,Scotland,,,286500,834500,2019,-3.88974047,57.3867065,,,,,,
Community Wind Power,Calder Water,Wind,Onshore,No,Wind,,39,,Scotland,Scotland,,,,,2013,0,0,,,,,,
Falck Renewables SpA,Auchrobert,Wind,Onshore,No,Wind,,38.76,LV,Scotland,Scotland,,NS760392,275154,638500,2017,-3.98419913,55.62400189,,,,,,
EDF Energy,Longpark,Wind,Onshore,No,Wind,,38,LV,Scotland,Scotland,TD12SW,,348050,642050,2009,-2.8274732,55.66915931,,,,,,
SSE Group,Achany Windfarm,Wind,Onshore,No,Wind,,38,LV,Scotland,Scotland,,NC480018,252350,904150,2010,-4.50001099,58.00193004,,,,,,
SSE Group,Deanie,Hydro,Natural Flow,No,Hydro,,38,HV,Scotland,Scotland,IV47JX,,219200,710100,1963,-4.574,57.288,,,,,,
Greencoat Capital,TwentyShilling Hill,Wind,Onshore,No,Wind,,37.8,LV,Scotland,Scotland,,,,,2015,0,0,,,,,,
Falck Renewables SpA,Earlsburn,Wind,Onshore,No,Wind,,37.5,LV,Scotland,Scotland,,NS697882,269652,688422,2007,-4.09550409,56.07080033,,,,,,
SSE Group,Glenmoriston,Hydro,Natural Flow,No,Hydro,,37,HV,Scotland,Scotland,IV36YH,,230869.8249,812928.107,1957,-4.79934786,57.17588468,,,,,,
Vattenfall,Clashindarroch,Wind,Onshore,No,Wind,,36.9,HV,Scotland,Scotland,,,348214,839951,2015,-2.86448366,57.4468853,,,,,,
SSE Group,Drumderg Windfarm,Wind,Onshore,No,Wind,,36.8,LV,Scotland,Scotland,,NO180538,324500,748500,2008,-3.23201428,56.62223532,,,,,,
Scottish Power,Ewe Hill II,Wind,Onshore,No,Wind,,36.8,HV,Scotland,Scotland,DG112QG,,315000,580000,2017,-3.3338687,55.10709697,,,,,,
Venitent Energy Services,Minsca,Wind,Onshore,No,Wind,,36.8,HV,Scotland,Scotland,DG112QE,,313821,581690,2008,-3.35285554,55.12207516,,,,,,
RWE Npower,Novar 2,Wind,Onshore,No,Wind,,36.8,HV,Scotland,Scotland,,,255500,871500,2012,-4.42695544,57.70996997,,,,,,
Statkraft,Andershaw,Wind,Onshore,No,Wind,,35,HV,Scotland,Scotland,ML126SX,,283500,625500,2017,-3.84625506,55.50932736,,,,,,
RES Group,Blary Hill,Wind,Onshore,No,Wind,,35,HV,Scotland,Scotland,PA29 6UZ,,,,2022,0,0,,,,,,
SSE Group,Tummel,Hydro,Natural Flow,No,Hydro,,34,LV,Scotland,Scotland,PH165SB,,261249.1532,580838.546,1933,-4.17624138,55.10249766,,,,,,
SSE Group,Luichart,Hydro,Natural Flow,No,Hydro,,34,HV,Scotland,Scotland,IV149EW,,231809.6871,862261.3366,1954,-4.81761336,57.61884176,,,,,,
Part of Drax Group,Tongland,Hydro,Natural Flow,No,Hydro,,33,LV,Scotland,Scotland,DG64LT,,270138.1014,554580.9859,1935,-4.02511427,54.86909983,,,,,,
RES Group,Churchtown Farm Solar,Solar,PV,No,Solar,,31.59,,,,,,,,2015,0,0,,,,,,
Community Wind Power,Sanquhar,Wind,Onshore,No,Wind,,31.05,,Scotland,Scotland,,,,,2018,0,0,,,,,,
RES Group,Tormywheel,Wind,Onshore,No,Wind,,30.75,LV,Scotland,Scotland,,,294905,655232,2017,-3.67713235,55.7789467,,,,,,
RES Group,Solwaybank,Wind,Onshore,No,Wind,,30.4,HV,Scotland,Scotland,DG11 3HG,EN329579,,,2020,0,0,,,,,,
EDF Energy,Burnfoot,Wind,Onshore,No,Wind,,30.1,LV,Scotland,Scotland,FK147JZ,,290135,703250,2010,-3.77277893,56.20910339,,,,,,
EDF Energy,West Benhar,Wind,Onshore,No,Wind,,30.1,,Scotland,Scotland,,,,,2023,0,0,,,,,,
Scira Offshore Energy,Hywind BMU 1,Wind,Offshore,No,Wind,,30,HV,Scotland,Scotland,,,433500,846500,2017,-1.44257917,57.50745151,E_HYWDW-1,,,,,
Scottish Power,Halsary,Wind,Onshore,No,Wind,,30,HV,Scotland,Scotland,KW126UW,,,,2020,-3.40465,58.42702,,,,,,
Venitent Energy Services,Dalswinton,Wind,Onshore,No,Wind,,30,HV,Scotland,Scotland,DG20YB,,295000,589000,2008,-3.65055797,55.18410125,,,,,,
Falck Renewables SpA,West Browncastle,Wind,Onshore,No,Wind,,30,LV,Scotland,Scotland,,NS619426,261117,642821,2014,-4.20912187,55.65898987,,,,,,
Venitent Energy Services,Ardrossan,Wind,Onshore,No,Wind,,30,LV,Scotland,Scotland,KA227NU,,223500,642500,2004,-4.8061192,55.64389749,,,,,,
Greencoat Capital,Stroupster,Wind,Onshore,No,Wind,,29.9,LV,Scotland,Scotland,,,334250,966250,2015,-3.13238287,58.57925147,,,,,,
Scottish Power,Dun Law II,Wind,Onshore,No,Wind,,29.75,HV,Scotland,Scotland,TD26RA,,346582,657530,2009,-2.85384149,55.808071,,,,,,
Scottish Power,Hare Hill II,Wind,Onshore,No,Wind,,29.75,HV,Scotland,Scotland,KA184NW,,265931,613982,2016,-4.11869436,55.40139749,,,,,,
Scottish Power,Beinn Tharsuinn,Wind,Onshore,No,Wind,,29.75,HV,Scotland,Scotland,IV191LH,,261700,881900,2005,-4.32899545,57.80525868,,,,,,
Scottish Power,Cruach Mhor,Wind,Onshore,No,Wind,,29.75,LV,Scotland,Scotland,PA223AE,,203500,687500,2004,-5.15598012,56.03993111,,,,,,
Scottish Power,Beinn an Tuirc I,Wind,Onshore,No,Wind,,29.7,LV,Scotland,Scotland,PA286QY,,173950,636900,2002,-5.58731634,55.57316831,,,,,,
Cubico Sustainable Investments,Penmanshiel ,Wind,Onshore,No,Wind,,28.7,LV,Scotland,Scotland,TD113RP,,380006,667129,2016,-2.32130336,55.89686253,,,,,,
Greencoat Capital,Drone Hill,Wind,Onshore,No,Wind,,28.6,LV,Scotland,Scotland,,,383719,667227,2012,-2.26193527,55.89788408,,,,,,
RES Group,Black Hill Wind Farm,Wind,Onshore,No,Wind,,28.6,LV,Scotland,Scotland,,NT730555,373000,656300,2007,-2.43224999,55.79922498,,,,,,
SSE Group,"Artfield Fell Windfarm - A,C",Wind,Onshore,No,Wind,,28.6,LV,Scotland,Scotland,,NX236659,223005,567000,2005,-4.76637354,54.96611278,,,,,,
Capital Dynamics UK,Whiteside Hill,Wind,Onshore,No,Wind,,28.5,HV,Scotland,Scotland,DG4 6LF,,,,2018,0,0,,,,,,
RES Group,Kelburn Wind Farm (GB),Wind,Onshore,No,Wind,,28,LV,Scotland,Scotland,KA245LE,,224000,655000,2012,-4.80621945,55.75625639,,,,,,
SSE Group,Toddleburn Windfarm,Wind,Onshore,No,Wind,,27.6,HV,Scotland,Scotland,,NT433499,345050,653150,2010,-2.87739519,55.76854969,T_TDBNW-1,,,,,
Falck Renewables SpA,Ben Aketil,Wind,Onshore,No,Wind,,27.6,LV,Scotland,Scotland,,NG311485,132500,846500,2007,-6.45832649,57.42978107,,,,,,
Scottish Power,Green Knowes,Wind,Onshore,No,Wind,,27,LV,Scotland,Scotland,FK147YJ,,296850,707550,2008,-3.66625304,56.24922341,,,,,,
RWE Npower,Bad a Cheo,Wind,Onshore,No,Wind,,26.65,HV,Scotland,Scotland,,,316615,948900,2018,-3.42919999,58.42044869,,,,,,
WPO UK Services,Quixwood Moor,Wind,Onshore,No,Wind,,26.65,,Scotland,Scotland,,NT 76067 64408,,,2017,0,0,,,,,,
Lightsource BP,Arkwright SPV,Solar,PV,No,Solar,,26.001155,,,,,,,,2016,0,0,,,,,,
RES Group,Glens of Foudland,Wind,Onshore,No,Wind,,26,LV,Scotland,Scotland,,,361496,837303,2009,-2.6427882,57.4244249,,,,,,
EDF Energy,Burnhead Moss,Wind,Onshore,No,Wind,,26,LV,Scotland,Scotland,FK12JW,,288503,671903,2016,-3.78600272,55.92722504,,,,,,
Scottish Power,Hagshaw Hill II,Wind,Onshore,No,Wind,,26,LV,Scotland,Scotland,ML110RR,,278965,630750,2008,-3.9203151,55.55537033,,,,,,
RES Group,Dungavel,Wind,Onshore,No,Wind,,26,HV,Scotland,Scotland,,,267954,636995,2015,-4.0977336,55.60858592,,,,,,
RES Group,Glenchamber Wind Farm (GB),Wind,Onshore,No,Wind,,25.3,LV,Scotland,Scotland,DG80PB,,224474,564039,2016,-4.74164477,54.94005499,,,,,,
Eneco Wind UK,Twinshiels,Wind,Onshore,No,Wind,,25,LV,Scotland,Scotland,,NO757723,375955,771728,2014,-2.395705,56.83637826,,,,,,
RES Group,Minnygap (GB),Wind,Onshore,No,Wind,,25,HV,Scotland,Scotland,DG109PX,,307313,597397,2017,-3.4600182,55.26199402,,,,,,
Falck Renewables SpA,Assel Valley,Wind,Onshore,No,Wind,,25,LV,Scotland,Scotland,,NX211938,223370,595995,2016,-4.77868459,55.22648348,,,,,,
SSE Group,Inverawe,Hydro,Natural Flow,No,Hydro,,25,LV,Scotland,Scotland,PA351HQ,,202299.546,730929.4816,1963,-5.2076397,56.42900796,,,,,,
RES Group,Little Raith (GB),Wind,Onshore,No,Wind,,24.8,LV,Scotland,Scotland,KY50AX,,,,2020,0,0,,,,,,
RWE Npower,Rosehall,Wind,Onshore,No,Wind,,24.7,LV,Scotland,Scotland,,,249550,903550,2013,-4.54695273,57.99560677,,,,,,
Lightsource BP,Laceby CIC2,Solar,PV,No,Solar,,24.602465,,,,,,,,2017,0,0,,,,,,
Part of Drax Group,Glenlee,Hydro,Natural Flow,No,Hydro,,24,LV,Scotland,Scotland,DG73SF,,261221.3585,580243.4607,1935,-4.176389,55.09713812,,,,,,
Part of Drax Group,Kendoon,Hydro,Natural Flow,No,Hydro,,24,LV,Scotland,Scotland,DG73UB,,261359.0734,589083.3994,1935,-4.1785483,55.176554,,,,,,
SSE Group,Battery Point,Fossil Fuel,Single cycle,No,Diesel/Gas Oil,,23,HV,Scotland,Scotland,,,143150,932158,1952,-6.37358071,58.20311045,,,,,,
Eneco Wind UK,Burn of Whilk,Wind,Onshore,No,Wind,,22.5,LV,Scotland,Scotland,,ND293407,326232,939965,2015,-3.26174396,58.34195063,,,,,,
Falck Renewables SpA,Kingsburn,Wind,Onshore,No,Wind,,22.5,LV,Scotland,Scotland,,NS668898,266606,686412,2016,-4.14339477,56.05191393,,,,,,
RES Group,Freasdail (GB),Wind,Onshore,No,Wind,,22.5,HV,Scotland,Scotland,PA296XR,,180721,660754,2017,-5.49921207,55.79019143,,,,,,
Venitent Energy Services,Glenkerie,Wind,Onshore,No,Wind,,22,LV,Scotland,Scotland,ML126QL,,310453,628117,2012,-3.42049179,55.53852458,,,,,,
Scottish Power,Glen App,Wind,Onshore,No,Wind,,22,HV,Scotland,Scotland,KA260PG,,208000,573000,2017,-5.0044435,55.01440125,,,,,,
Greencoat Capital,North Rhins,Wind,Onshore,No,Wind,,22,LV,Scotland,Scotland,,,201980,557960,2009,-5.08807169,54.87709,,,,,,
Fred Olsen Renewables,Brockloch Rig 1,Wind,Onshore,No,Wind,,21.6,LV,Scotland,Scotland,,,261500,602500,1996,-4.18292859,55.29706845,,,,,,
RES Group,Cour Wind Farm,Wind,Onshore,No,Wind,,20.5,HV,Scotland,Scotland,PA286QL,,181005,648528,2017,-5.48489521,55.68067482,,,,,,
Engie Power,Scotia Wind (Craigengelt) Ltd,Wind,Onshore,No,Wind,,20,HV,Scotland,Scotland,FK79QS,,272451,686495,2010,-4.04965547,56.05425303,,,,,,
SSE Group,"Kilmorack Power Station -A,E",Hydro,Natural Flow,No,Hydro,,20,HV,Scotland,Scotland,,NH494442,249410,844225,1962,-4.51211945,57.46321283,,,,,,
SSE Group,"Aigas Power Station - A,E",Hydro,Natural Flow,No,Hydro,,20,HV,Scotland,Scotland,,NH474437,247395,843655,1962,-4.54531771,57.45742438,,,,,,
SSE Group,"Invergarry Power Station - A,E",Hydro,Natural Flow,No,Hydro,,19.975,HV,Scotland,Scotland,,NH319013,231930,801320,1956,-4.77403109,57.07212146,,,,,,
RWE Npower,An Suidhe,Wind,Onshore,No,Wind,,19.3,HV,Scotland,Scotland,,,200483,707563,2005,-5.21934456,56.21865466,,,,,,
EDF Energy,Pearie Law,Wind,Onshore,No,Wind,,19.2,LV,Scotland,Scotland,EH558RT,,302205,659690,2016,-3.56240119,55.82051871,,,,,,
SSE Group,"Mossford Power Station - A,G",Hydro,Natural Flow,No,Hydro,,18.66,HV,Scotland,Scotland,,NH330633,233010.4264,863187.3669,1957,-4.7981888,57.62759544,,,,,,
SSE Group,"Grudie Bridge Power Station - A, G",Hydro,Natural Flow,No,Hydro,,18.66,LV,Scotland,Scotland,,NH310624,231315.68,862293.3698,1950,-4.82589505,57.61894435,,,,,,
SSE Group,"Shin Power Station-A,G",Hydro,Natural Flow,No,Hydro,,18.62,LV,Scotland,Scotland,,NH574974,257261.3273,897258.4795,1958,-4.41283713,57.94168765,,,,,,
SSE Group,Tangy Wind Farm - A,Wind,Onshore,No,Wind,,18.52,LV,Scotland,Scotland,,NR685282,167373,626330,2002,-5.68253006,55.47529607,,,,,,
Greencoat Capital,Kildrummy,Wind,Onshore,No,Wind,,18.4,LV,Scotland,Scotland,,,357655,815170,2013,-2.7029346,57.22528325,,,,,,
Scottish Power,Wether Hill,Wind,Onshore,No,Wind,,18.2,LV,Scotland,Scotland,DG73UG,,270000,594000,2007,-4.04522705,55.22305698,,,,,,
SSE Group,"Quoich Power Station - A, E, G",Hydro,Natural Flow,No,Hydro,,18.05,LV,Scotland,Scotland,,NH107012,216881.8432,800852.8905,1955,-5.02153803,57.06219579,,,,,,
SSE Group,Orrin Power Station- A,Hydro,Natural Flow,No,Hydro,,18,HV,Scotland,Scotland,,NH436546,246905,851695,1959,-4.55852106,57.5294064,,,,,,
Community Wind Power,Millour Hill,Wind,Onshore,No,Wind,,18,,Scotland,Scotland,,,,,2012,0,0,,,,,,
Community Wind Power,Wardlaw Wood,Wind,Onshore,No,Wind,,18,,Scotland,Scotland,,,,,2006,0,0,,,,,,
Eneco Wind UK,Tullo,Wind,Onshore,No,Wind,,17.5,LV,Scotland,Scotland,,NO757723,387283,785873,2010,-2.21076584,56.96389535,,,,,,
Scottish Power,Dun Law I,Wind,Onshore,No,Wind,,17.16,LV,Scotland,Scotland,TD26RA,,344600,657500,2000,-2.88545326,55.8075777,,,,,,
SSE Group,Culligran Power Station Unit 2 - A,Hydro,Natural Flow,No,Hydro,,17.1,HV,Scotland,Scotland,,NH378405,231877.3107,839888.3031,1962,-4.80105335,57.41814304,,,,,,
Venitent Energy Services,Novar,Wind,Onshore,No,Wind,,17,LV,Scotland,Scotland,IV170XJ,,255500,871000,1997,-4.42665506,57.70548292,,,,,,
SSE Group,"St Fillans Power Station - A, G",Hydro,Natural Flow,No,Hydro,,16.83,LV,Scotland,Scotland,,NN691246,269101.6039,724133.4206,1957,-4.12199327,56.39126838,,,,,,
SSE Group,"Finlarig Power Station - A,G",Hydro,Natural Flow,No,Hydro,,16.5,HV,Scotland,Scotland,,NN585345,257077.3479,733907.8186,1955,-4.32195515,56.47552953,,,,,,
SSE Group,"Ceannacroc Power Station - A, E",Hydro,Natural Flow,No,Hydro,,16.5,LV,Scotland,Scotland,,NH224108,222745,810690,1956,-4.93196248,57.15273972,,,,,,
Greencoat Capital,Langhope Rig,Wind,Onshore,No,Wind,,16.4,LV,Scotland,Scotland,,,340519,615032,2013,-2.94136338,55.42556285,,,,,,
Falck Renewables SpA,Boyndie,Wind,Onshore,No,Wind,,16.3,LV,Scotland,Scotland,,NJ613641,364000,862000,2006,-2.60476044,57.64645709,,,,,,
SSE Group,Kirkwall,Fossil Fuel,Single cycle,No,Diesel/Gas Oil,,16,HV,Scotland,Scotland,KW151AN,,344667,1010985,1952,-2.96435466,58.9824051,,,,,,
RES Group,Earlseat Wind Farm (GB),Wind,Onshore,No,Wind,,16,LV,Scotland,Scotland,HY14TQ,,332961,698416,2013,-3.08132625,56.17364966,,,,,,
RWE Npower,Deucheran Hill (RO),Wind,Onshore,No,Wind,,15.8,LV,Scotland,Scotland,,,177000,643000,2001,-5.54397516,55.62927744,,,,,,
RWE Npower,Bowbeat (Roughside) - RO,Wind,Onshore,No,Wind,,15.6,LV,Scotland,Scotland,,,333000,646200,2002,-3.06771187,55.70459433,,,,,,
RWE Npower,Bowbeat (Emly Bank) - RO,Wind,Onshore,No,Wind,,15.6,LV,Scotland,Scotland,,,329600,647500,2002,-3.12213749,55.71579014,,,,,,
RES Group,Carscreugh,Wind,Onshore,No,Wind,,15.3,HV,Scotland,Scotland,,,225000,555000,2014,-4.72795044,54.85910673,,,,,,
Scottish Power,Clachan Flats,Wind,Onshore,No,Wind,,15.03,HV,Scotland,Scotland,PA268BJ,,217950,714520,2009,-4.94287093,56.28808261,,,,,,
SSE Group,Pitlochry Power Station - A,Hydro,Natural Flow,No,Hydro,,15,HV,Scotland,Scotland,,NN936577,293515,757730,1950,-3.74055613,56.69909416,,,,,,
Falck Renewables SpA,Nutberry,Wind,Onshore,No,Wind,,15,LV,Scotland,Scotland,,NS777322,279021,635662,2013,-3.92158096,55.59949438,,,,,,
SSE Group,"Torr Achilty Power Station - A,E",Hydro,Natural Flow,No,Hydro,,15,LV,Scotland,Scotland,,NH446545,244418.3748,854546.6167,1954,-4.60183274,57.55414977,,,,,,
SSE Group,Livishie Power Station - A,Hydro,Natural Flow,No,Hydro,,15,LV,Scotland,Scotland,,NH353160,240245,817495,1962,-4.64739651,57.22022749,,,,,,
SSE Group,"Nant Power Station - A,E",Hydro,Natural Flow,No,Hydro,,15,HV,Scotland,Scotland,,NN016207,203606.804,723291.4042,1963,-5.18075718,56.36103966,T_NANT-1,,,,,
Lightsource BP,Firs Road CIC1,Solar,PV,No,Solar,,14.402485,,,,,,,,2017,0,0,,,,,,
Temporis Capital,Tullymurdoch,Wind,Onshore,No,Wind,,14.4,LV,Scotland,Scotland,PH118LH,,319575,752228,2018,-3.31341464,56.65489734,,,,,,
Part of Drax Group,Earlstoun,Hydro,Natural Flow,No,Hydro,,14,LV,Scotland,Scotland,DG73SR,,261304.6735,583126.6451,1935,-4.17648126,55.12305808,,,,,,
WPO UK Services,Pates Hill,Wind,Onshore,No,Wind,,14,,Scotland,Scotland,,NT 00099 59791,,,2010,0,0,,,,,,
Fred Olsen Renewables,Crystal Rig III,Wind,Onshore,No,Wind,,13.8,HV,Scotland,Scotland,,,368562,672486,2016,-2.504921,55.94437752,,,,,,
Scottish Power,Ewe Hill I,Wind,Onshore,No,Wind,,13.8,LV,Scotland,Scotland,DG112QG,,315000,580000,2016,-3.3338687,55.10709697,,,,,,
Scottish Power,Hare Hill I,Wind,Onshore,No,Wind,,13.2,LV,Scotland,Scotland,KA184NW,,265320,609703,2000,-4.12627241,55.36280784,,,,,,
Greencoat Capital,Errol,Solar,PV,No,Solar,,12.99942,LV,Scotland,Scotland,PH27NL,,321840,721031,2016,-3.26709385,56.37508161,,,,,,
Capital Dynamics UK,Sorbie,Wind,Onshore,No,Wind,,12.6,,Scotland,Scotland,,,,,2023,-4.791289,55.658546,,,,,,
Venitent Energy Services,Gordonstown Hill,Wind,Onshore,No,Wind,,12.5,LV,Scotland,Scotland,AB538LH,,371136,841396,2013,-2.48276411,57.46190585,,,,,,
EPR,EPR Scotland Ltd,Bioenergy,Bioenergy,No,Biomass,Oil,12.5,HV,Scotland,Scotland,KY50HR,,319000,695100,2000,-3.30510928,56.14169436,,,,,,
Temporis Capital,Muirhall,Wind,Onshore,No,Wind,,12.3,LV,Scotland,Scotland,EH558LN,,300605,653760,2010,-3.58575982,55.76693209,,,,,,
EDF Energy,Rhodders,Wind,Onshore,No,Wind,,12.3,LV,Scotland,Scotland,FK147JZ,,288738,697461,2016,-3.79286128,56.15679407,,,,,,
Engie Power,Blantyre Muir Wind Energy Ltd,Wind,Onshore,No,Wind,,12.3,HV,Scotland,Scotland,G720TR,,268888,651781,2014,-4.08998791,55.74160266,,,,,,
Capital Dynamics UK,Falkirk Tod Hill,Wind,Onshore,No,Wind,,12.3,HV,Scotland,Scotland,FK5 4SJ,,,,2016,0,0,,,,,,
WPO UK Services,Dummuies,Wind,Onshore,No,Wind,,12.25,LV,Scotland,Scotland,,NJ5635836050,,,2007,0,0,,,,,,
Part of Drax Group,Carsfad,Hydro,Natural Flow,No,Hydro,,12,LV,Scotland,Scotland,DG73ST,,259672.5447,584952.2229,1935,-4.20295477,55.13898549,,,,,,
Scottish Power,Middleton,Wind,Onshore,No,Wind,,12,LV,Scotland,Scotland,G776PZ,,253158,656019,2013,-4.34260271,55.77513278,,,,,,
WPO UK Services,AOE,Wind,Onshore,No,Wind,,11.5,HV,Scotland,Scotland,,NS5802548945,257717,648148,2014,-4.26588426,55.7058305,,,,,,
Part of Drax Group,Bonnington,Hydro,Natural Flow,No,Hydro,,11,LV,Scotland,Scotland,ML119TB,,288851.2921,641742.8194,1927,-3.76811681,55.65645184,,,,,,
SSE Group,"Cashlie Power Station - A,C",Hydro,Natural Flow,No,Hydro,,11,LV,Scotland,Scotland,,NN507421,248530,741735,1959,-4.46513199,56.54310914,,,,,,
SSE Group,Loch Carnan,Fossil Fuel,Single cycle,No,Diesel/Gas Oil,,11,HV,Scotland,Scotland,,,83233,842636,1972,-7.27050337,57.36357422,,,,,,
EDF Energy,Burnfoot East,Wind,Onshore,No,Wind,,10.8,LV,Scotland,Scotland,FK147JZ,,,,2020,0,0,,,,,,
Engie Power,Cairnborrow Wind Energy Ltd,Wind,Onshore,No,Wind,,10.25,HV,Scotland,Scotland,AB544XP,,346153,841867,2017,-2.89924054,57.46385334,,,,,,
RES Group,Meikle Carewe Wind Farm (GB),Wind,Onshore,No,Wind,,10.2,LV,Scotland,Scotland,AB393QH,,383200,792000,2013,-2.27832027,57.01880367,,,,,,
SSE Group,Spurness Wind Farm II,Wind,Onshore,No,Wind,,10,LV,Scotland,Scotland,,HY606356,360531,1033828,2012,-2.69252249,59.18928988,,,,,,
Temporis Capital,Craig,Wind,Onshore,No,Wind,,10,HV,Scotland,Scotland,DG130NZ,,331995,586055,2007,-3.06899427,55.16412216,,,,,,
Venitent Energy Services,Westfield,Wind,Onshore,No,Wind,,10,LV,Scotland,Scotland,KY50HJ,,319640,695487,2013,-3.29492986,56.14527875,,,,,,
RES Group,Neilston (GB),Wind,Onshore,No,Wind,,10,LV,Scotland,Scotland,G784BZ,,245292,653952,2018,-4.4667059,55.75412548,,,,,,
SSE Group,"Cassley Power Station - A,C,E",Hydro,Natural Flow,No,Hydro,,10,LV,Scotland,Scotland,,NC396232,247325,901540,1959,-4.5832512,57.97681276,,,,,,
SSE Group,Arnish,Fossil Fuel,Single cycle,No,Diesel/Gas Oil,,10,HV,Scotland,Scotland,,,142229,930499,2000,-6.38736876,58.18771661,,,,,,
Quinbrook Infrastructure Partners,Cleve Hill Solar Park,Solar,PV,No,Solar,,317,,England,,,,,,,0.9429,51.3344,T_CLVHS-1,T_CLVHS-2,,,,
