companyName,siteName,technology,type,chp,primaryFuel,secondaryFuel,installedCapacity,gridConnectionType,country,region,postcode,osReference,Easting,Northing,yearCommissioned,lon,lat,bmus,bmus,bmus,bmus,bmus,bmus
Part of Drax Group,Drax Power Station Biomass Units,Bioenergy,Bioenergy,No,Biomass,,2640,HV,England,Yorkshire and the Humber,YO88PH,,466650,427050,2013,-0.99,53.74,T_DRAXX-1,T_DRAXX-2,T_DRAXX-3,T_DRAXX-4,T_DRAXX-5,T_DRAXX-6
RWE Npower,Pembroke,Fossil Fuel,CCGT,No,Natural Gas,,2199,HV,Wales,Wales,SA715SS,,193370,200137,2012,-4.99,51.66,T_PEMB-11,T_PEMB-21,T_PEMB-31,T_PEMB-41,T_PEMB-51,
RWE Npower,Staythorpe,Fossil Fuel,CCGT,No,Natural Gas,,1828,HV,England,East Midlands,NG235RQ,,475532,351265,2010,-0.87,53.05,T_STAY-1,T_STAY-2,T_STAY-3,T_STAY-4,,
Engie Power,Dinorwig Power Station,Pumped Hydro,Pumped Hydro,No,Pumped hydro,,1800,HV,Wales,Wales,,SH594600,259400,360000,1984,-4.1,53.12,T_DINO-1,T_DINO-2,T_DINO-3,T_DINO-4,T_DINO-5,T_DINO-6
RWE Npower,Didcot B,Fossil Fuel,CCGT,No,Natural Gas,,1450,HV,England,South East,OX117YU,,451077,182210,1998,-1.26,51.54,T_DIDCB5,T_DIDCB6,,,,
Orsted,Hornsea 02,Wind,Offshore,No,Wind,,1386,,England,East Midlands,,,,,2022,1.43,53.68,T_HOWBO-1,T_HOWBO-2,T_HOWBO-3,,,
Uniper UK,Connahs Quay,Fossil Fuel,CCGT,No,Natural Gas,,1380,HV,Wales,Wales,CH54BP,,328878,368331,1996,-3.07,53.21,T_CNQPS-1,T_CNQPS-2,T_CNQPS-3,T_CNQPS-4,,
Uniper UK,Grain,Fossil Fuel,CCGT,Yes,Natural Gas,,1365,HV,England,South East,ME30AR,,588672,172826,2011,0.71,51.42,T_GRAI-6,T_GRAI-7,T_GRAI-8,,,
EPUKi,EP SHB LTD,Fossil Fuel,CCGT,No,Natural Gas,,1365,HV,England,Yorkshire and the Humber,DN418BZ,,520457,409164,1997,-0.18,53.57,T_SHBA-1,T_SHBA-2,,,,
UK Transition Limited,West Burton CCGT,Fossil Fuel,CCGT,No,Natural Gas,,1332,HV,England,East Midlands,DN229BL,,479368,384538,2013,-0.81,53.35,T_WBURB-1,T_WBURB-2,T_WBURB-3,,,
Vitol,VPI,Fossil Fuel,CCGT,Yes,Natural Gas,,1268,HV,England,Yorkshire and the Humber,DN403DZ,,518189,412390,2004,-0.22,53.59,T_HUMR-1,,,,,
EDF Energy,Heysham 2,Nuclear,AGR,No,Nuclear,,1240,HV,England,North West,LA32XH,,341498,461449,1988,-2.89,54.05,T_HEYM27,T_HEYM28,,,,
Co-owned by SSE Group and Cheung Kong Infrastructure Ltd,Seabank Power Ltd,Fossil Fuel,CCGT,No,Natural Gas,,1234,HV,England,South West,,,343425,161749,2000,-2.81,51.35,T_SEAB-1,T_SEAB-2,,,,
Orsted,Hornsea 01,Wind,Offshore,No,Wind,,1218,HV,England,North East,,,626000,426000,2019,1.41,53.68,T_HOWAO-1,T_HOWAO-2,T_HOWAO-3,,,
SSE Group and Equinor,Dogger Bank A,Wind,Offshore,No,Wind,,1200,,England,North East,,,,,2024,2.33,54.83,T_DBAWO-1,T_DBAWO-2,T_DBAWO-3,T_DBAWO-4,T_DBAWO-5,
Energy Capital Partners,Saltend Power Station,Fossil Fuel,CCGT,Yes,Natural Gas,,1200,HV,England,Yorkshire and the Humber,HU128GA,,509793,428825,2000,-0.34,53.74,T_SCCL-1,T_SCCL-2,T_SCCL-3,,,
EDF Energy,Torness,Nuclear,AGR,No,Nuclear,,1200,HV,Scotland,Scotland,EH421QS,,218252,651517,1988,-2.41,55.97,T_TORN-1,T_TORN-2,,,,
EDF Energy,Sizewell B,Nuclear,PWR,No,Nuclear,,1198,HV,England,East of England,IP164UR,,647453,260420,1995,1.62,52.19,T_SIZB-1,T_SIZB-2,,,,
EDF Energy,Hartlepool,Nuclear,AGR,No,Nuclear,,1185,HV,England,North East,TS252BZ,,451747,531078,1983,-1.2,54.67,T_HRTL-1,T_HRTL-2,,,,
SSE Group,Peterhead,Fossil Fuel,CCGT,No,Natural Gas,,1180,HV,Scotland,Scotland,AB423BZ,,412790,843093,1980,-1.79,57.48,T_PEHE-1,,,,,
SSE Group,Seagreen,Wind,Offshore,No,Wind,,1075,,Scotland,Scotland,,NO399369,,,2022,-1.93,56.64,T_SGRWO-1,T_SGRWO-2,T_SGRWO-3,T_SGRWO-4,T_SGRWO-5,T_SGRWO-6
EDF Energy,Heysham 1,Nuclear,AGR,No,Nuclear,,1060,HV,England,North West,LA32XH,,341498,461449,1983,-2.89,54.05,T_HEYM11,T_HEYM12,,,,
EDF Energy,Hinkley Point B,Nuclear,AGR,No,Nuclear,,965,HV,England,South West,TA51UD,,320959,143307,1976,-3.13,51.18,T_HINB-7,T_HINB-8,,,,
Intergen,Spalding Energy Company Ltd,Fossil Fuel,CCGT,No,Natural Gas,,950,HV,England,East Midlands,,,524944,320245,2004,-0.15,52.77,T_SPLN-1,,,,,
Moray Offshore Windfarm (East) Ltd,Moray Offshore Windfarm East Limited,Wind,Offshore,No,Wind,,950,,Scotland,Scotland,AB43 9BR,,,,2021,-2.72,58.19,T_MOWEO-1,T_MOWEO-2,T_MOWEO-3,,,
Moray Offshore Windfarm (West) Ltd,Moray Offshore Windfarm West Limited,Wind,Offshore,No,Wind,,950,,Scotland,Scotland,,,,,2021,-3.01,58.1,T_MOWWO-1,T_MOWWO-2,T_MOWWO-3,T_MOWWO-4,,
ESB,Carrington Power,Fossil Fuel,CCGT,No,Natural Gas,,910,HV,England,North West,M314AY,,373287,393037,2016,-2.4,53.43,T_CARR-1,T_CARR-2,,,,
EPUKi,EP Langage Ltd,Fossil Fuel,CCGT,No,Natural Gas,,905,HV,England,South West,PL75AW,,257085,56194,2010,-4.01,50.39,T_LAGA-1,,,,,
Marchwood Power,Marchwood Power,Fossil Fuel,CCGT,No,Natural Gas,,898,HV,England,South East,SO404BD,,438274,108147,2009,-1.46,50.87,T_MRWD-1,,,,,
RWE Npower,Triton Knoll,Wind,Offshore,No,Wind,,857,HV,England,Yorkshire and the Humber,,TA 25405 11338,,,2021,0.84,53.48,T_TKNEW-1,T_TKNWW-1,,,,
Calon Energy,Severn Power Ltd,Fossil Fuel,CCGT,No,Natural Gas,,850,LV,England,0,,,333250,185006,2010,-2.96,51.56,T_SVRP-10,T_SVRP-20,,,,
SSE Group,Keadby 2,Fossil Fuel,CCGT,,Natural Gas,,840,,England,East Midlands,,,,,2023,-0.75,53.59,T_KEAD-2,,,,,
Intergen,Rocksavage Power Company Ltd ,Fossil Fuel,CCGT,No,Natural Gas,,810,HV,England,North West,,,352414,377661,1998,-2.72,53.29,T_ROCK-1,,,,,
Vitol,Damhead Creek,Fossil Fuel,CCGT,No,Natural Gas,,805,HV,England,South East,ME39TX,,581973,173211,2000,0.62,51.43,T_DAMC-1,,,,,
Intergen,Coryton Energy Company Ltd,Fossil Fuel,CCGT,No,Natural Gas,,800,HV,England,South East,,,565166,178798,2002,0.38,51.48,T_COSO-1,,,,,
SSE Group,Medway,Fossil Fuel,CCGT,No,Natural Gas,,755,HV,England,South East,ME30AG,,586916,174008,1995,0.69,51.43,T_MEDP-1,,,,,
SSE Group,Keadby,Fossil Fuel,CCGT,No,Natural Gas,,735,HV,England,East Midlands,DN173EF,,483280,411671,1982,-0.74,53.6,T_KEAD-1,,,,,
RWE Npower,Little Barford,Fossil Fuel,CCGT,No,Natural Gas,,723,HV,England,East of England,PE196YT,,519049,256838,1995,-0.26,52.2,T_LBAR-1,T_LBAR-1G,,,,
Vitol,Rye House,Fossil Fuel,CCGT,No,Natural Gas,,715,HV,England,East of England,EN110RF,,538365,209811,1993,0,51.77,T_RYHPS-1,,,,,
Scottish Power,East Anglia One,Wind,Offshore,No,Wind,,714,HV,England,East of England,,,,,2019,2.49,52.23,T_EAAO-1,T_EAAO-2,,,,
RWE Npower,London Array,Wind,Offshore,No,Wind,,630,HV,England,South East,,TM459013,642078,197218,2013,1.5,51.62,T_LARYW-1,T_LARYW-2,T_LARYW-3,T_LARYW-4,,
Uniper UK,Killingholme,Fossil Fuel,Single cycle,No,Natural Gas,,600,HV,England,Yorkshire and the Humber,DN403LU,,516717,419816,1992,-0.24,53.66,T_KILLPG-1,T_KILLPG-2,,,,
SSE Group,Beatrice Offshore windfarm,Wind,Offshore,No,Wind,,588,HV,Scotland,Scotland,,ND500486,344074,911416,2018,-2.95,58.09,T_BEATO-1,T_BEATO-2,T_BEATO-3,T_BEATO-4,,
RWE Npower,Gwynt y Mor,Wind,Offshore,No,Wind,,576,HV,Wales,Wales,,SH9482396924,292082,396482,2013,-3.63,53.45,T_GYMR-15,T_GYMR-17,T_GYMR-26,T_GYMR-28,,
Orsted,Race Bank,Wind,Offshore,No,Wind,,573,HV,England,East of England,,,573300,363000,2018,0.59,53.14,T_RCBKO-1,T_RCBKO-2,,,,
SSE Group,Greater Gabbard,Wind,Offshore,No,Wind,,504,HV,England,East of England,,TM714315,670237,231640,2011,1.93,51.92,T_GRGBW-1,T_GRGBW-2,T_GRGBW-3,,,
Uniper UK,Cottam Development Centre,Fossil Fuel,CCGT,No,Natural Gas,,445,HV,England,East Midlands,DN220TF,,470307,378332,1998,-0.95,53.3,T_CDCL-1,,,,,
SSE Group,Viking Windfarm,Wind,Onshore,No,Wind,,443,HV,Scotland,Scotland,,,,,,-1.21,60.35,T_VKNGW-1,T_VKNGW-2,T_VKNGW-3,T_VKNGW-4,,
Part of Drax Group,Cruachan,Pumped Hydro,Pumped Hydro,No,Pumped hydro,,440,HV,Scotland,Scotland,PA331AN,,207006,716929,1965,-5.12,56.31,T_CRUA-1,T_CRUA-2,T_CRUA-3,T_CRUA-4,,
RWE Npower,Great Yarmouth,Fossil Fuel,CCGT,No,Natural Gas,,420,LV,England,East of England,NR303PY,,652534,307744,2001,1.73,52.61,E_GYAR-1,,,,,
Vitol,Shoreham,Fossil Fuel,CCGT,No,Natural Gas,,420,LV,England,South East,BN411WF,,521488,105110,2000,-0.28,50.83,E_SHOS-1,,,,,
EPUKi,Lynemouth Power Limited,Bioenergy,Bioenergy,No,Biomass,,420,HV,England,North East,NE639NW,,429850,590374,2018,-1.53,55.21,E_LYNE1,E_LYNE2,E_LYNE3,,,
Uniper UK,Enfield,Fossil Fuel,CCGT,No,Natural Gas,,408,HV,England,London,EN37PL,,532446,190691,1999,-0.09,51.6,T_EECL-1,,,,,
ESB,Corby Power Station,Fossil Fuel,CCGT,No,Natural Gas,,407,HV,England,East Midlands,,,488447,266932,1994,-0.7,52.29,E_CORB-1,,,,,
Scira Offshore Energy,Dudgeon,Wind,Offshore,No,Wind,,402,HV,England,East of England,,,575000,361000,2017,0.61,53.12,T_DDGNO-1,T_DDGNO-2,T_DDGNO-3,T_DDGNO-4,,
RWE Npower,Rampion,Wind,Offshore,No,Wind,,400.2,HV,England,South East,,,525000,95000,2018,-0.23,50.74,T_RMPNO-1,T_RMPNO-2,,,,
RWE Npower,Kings Lynn,Fossil Fuel,CCGT,No,Natural Gas,,395,LV,England,East of England,PE343RD,,,,1997,0.38,52.73,E_KLYN-A-1,,,,,
Orsted,West of Duddon Sands,Wind,Offshore,No,Wind,,389,HV,England,North West,,,304230,455334,2014,-3.46,53.99,T_WDNSO-1,T_WDNSO-2,,,,
Engie Power,Ffestiniog Power Station,Pumped Hydro,Pumped Hydro,No,Pumped hydro,,360,HV,Wales,Wales,,SH679444,267900,344400,1963,-3.97,52.98,T_FFES-1,T_FFES-2,T_FFES-3,T_FFES-4,,
RWE Npower,Galloper,Wind,Offshore,No,Wind,,352.8,HV,England,East of England,,TM7796929898,646316,262379,2017,1.6,52.2,T_GANW-11,T_GANW-22,T_GANW-13,T_GANW-24,,
Orsted,Walney 03,Wind,Offshore,No,Wind,,330,HV,England,North West,,,295033,466313,2017,-3.61,54.08,T_WLNYO-3,,,,,
Orsted,Walney 04,Wind,Offshore,No,Wind,,329,HV,England,North West,,,320039,464000,2018,-3.22,54.07,T_WLNYO-4,,,,,
Scottish Power,Whitelee I,Wind,Onshore,No,Wind,,322,HV,Scotland,Scotland,KA36EX,,256800,645435,2007,-4.28,55.68,T_WHILW-1,,,,,
Quinbrook Infrastructure Partners,Cleve Hill Solar Park,Solar,PV,No,Solar,,317,,England,,,,,,,0.94,51.33,T_CLVHS-1,T_CLVHS-2,,,,
Vattenfall,Thanet ,Wind,Offshore,No,Wind,,300,HV,England,South East,,,652658,176367,2010,1.63,51.43,T_THNTO-1,T_THNTO-2,,,,
Intergen,Spalding Expansion OCGT ,Fossil Fuel,CCGT,,Natural Gas,,300,,England,East Midlands,PE11 3BB,,,,2019,-0.13,52.81,T_SEEL-1,,,,,
SSE Group,Foyers Pumped Storage,Pumped hydro,Pumped hydro,No,Pumped hydro,,300,HV,Scotland,Scotland,,NH497210,250350,821750,1974,-4.48,57.26,T_FOYE-1,T_FOYE-2,,,,
Orsted,Lincs,Wind,Offshore,No,Wind,,270,HV,England,East Midlands,,,567020,368144,2013,0.5,53.18,T_LNCSW-1,T_LNCSW-2,,,,
Orsted,Burbo Extension ,Wind,Offshore,No,Wind,,259,HV,England,North West,,,315815,398892,2016,-3.27,53.48,T_BRBEO-1,,,,,
River Nene,Peterborough Power Station,Fossil Fuel,Single cycle,No,Natural Gas,,245,HV,England,East of England,PE15NT,,518401,299217,1993,-0.25,52.58,E_PETEM1,,,,,
Greencoat Capital,South Kyle,Wind,Onshore,No,Wind,,240,,Scotland,Scotland,,,,,2023,-4.29,55.32,T_SOKYW-1,,,,,
Scottish Power,Kilgallioch,Wind,Onshore,No,Wind,,239,HV,Scotland,Scotland,KA260RF,,223000,578000,2016,-4.77,55.06,T_KLGLW-1,,,,,
Vattenfall,Pen Y Cymoedd,Wind,Onshore,No,Wind,,228,HV,Wales,Wales,,,292879,199365,2016,-3.55,51.68,T_PNYCW-1,,,,,
SSE Group,Stronelairg Wind Farm,Wind,Onshore,No,Wind,,227.7,HV,Scotland,Scotland,,NH526030,247166,806833,2018,-4.53,57.13,T_STLGW-1,T_STLGW-2,T_STLGW-3,,,
RWE Npower,Humber Gateway,Wind,Offshore,No,Wind,,219,HV,England,Yorkshire and the Humber,,,528439,411181,2015,-0.06,53.58,T_HMGTO-1,T_HMGTO-2,,,,
Scottish Power,Whitelee II,Wind,Onshore,No,Wind,,217.02,HV,Scotland,Scotland,KA36EX,,254220,640867,2012,-4.32,55.64,T_WHILW-2,,,,,
Orsted,Westermost Rough,Wind,Offshore,No,Wind,,210,HV,England,Yorkshire and the Humber,,,541677,436555,2015,0.15,53.81,T_WTMSO-1,,,,,
SSE Group,Clyde Windfarm (North),Wind,Onshore,No,Wind,,197.7,LV,Scotland,Scotland,,NS985240,302500,627500,2012,-3.55,55.53,T_CLDNW-1,,,,,
SSE Group,Clyde Windfarm (Central),Wind,Onshore,No,Wind,,195.9,LV,Scotland,Scotland,,NS987202,302500,622500,2011,-3.54,55.49,T_CLDCW-1,,,,,
SSE Group,Griffin Wind Farm,Wind,Onshore,No,Wind,,188.6,HV,Scotland,Scotland,,NN910427,293600,744600,2011,-3.73,56.58,T_GRIFW-1,,,,,
Orsted,Walney 01,Wind,Offshore,No,Wind,,183,HV,England,North West,,,300833,461449,2011,-3.52,54.04,T_WLNYW-1,,,,,
Orsted,Walney 02,Wind,Offshore,No,Wind,,183,HV,England,North West,,,300833,461449,2012,-3.52,54.04,T_WLNYO-2,,,,,
EDF Energy,Dorenell,Wind,Onshore,No,Wind,,177,HV,Scotland,Scotland,AB554DT,,332000,829500,2018,-3.13,57.35,T_DOREW-1,T_DOREW-2,,,,
Scira Offshore Energy,Sheringham Shoal BMU 1,Wind,Offshore,No,Wind,,158,HV,England,East of England,,,610671,364425,2012,1.15,53.14,T_SHRSW-1,,,,,
Scira Offshore Energy,Sheringham Shoal BMU 2,Wind,Offshore,No,Wind,,158,HV,England,East of England,,,610671,364425,2012,1.15,53.14,T_SHRSW-2,,,,,
SSE Group,Sloy,Hydro,Natural Flow,No,Hydro,,152.5,HV,Scotland,Scotland,G837DP,,232178.8035,709714.4187,1950,-4.71,56.25,M_SLOY-1,T_SLOY-2,T_SLOY-3,M_SLOY-4,,
Vattenfall,Ormonde,Wind,Offshore,No,Wind,,150,HV,England,North West,,,306000,466842,2011,-3.44,54.09,T_OMNDW-1,,,,,
Uniper UK,Taylors Lane,Fossil Fuel,Single cycle,No,Diesel/Gas Oil,,144,HV,England,London,NW108JP,,524680,195111,1979,-0.2,51.64,E_TAYL2G,E_TAYL3G,,,,
EDF Energy,Fallago Rig,Wind,Onshore,No,Wind,,144,HV,Scotland,Scotland,TD36NW,,357000,660000,2013,-2.69,55.83,T_FALGW-1,,,,,
RWE Npower,Cowes,Fossil Fuel,Single cycle,No,Diesel/Gas Oil,,140,LV,England,South East,PO326JF,,448472,93554,1982,-1.31,50.74,E_COWE1,E_COWE2,,,,
Energy Capital Partners,Indian Queens Power Ltd,Fossil Fuel,Single cycle,No,Diesel/Gas Oil,,140,HV,England,South West,,SW940591,191739,58385,1996,-4.93,50.39,T_INDQ-1,,,,,
Fred Olsen Renewables,Crystal Rig II,Wind,Onshore,No,Wind,,138,HV,Scotland,Scotland,,,367000,667500,2003,-2.53,55.9,T_CRYRW-2,,,,,
Scottish Power,Harestanes,Wind,Onshore,No,Wind,,136,HV,Scotland,Scotland,DG111TU,,300000,595000,2013,-3.57,55.24,T_HRSTW-1,,,,,
SSE Group,Clyde Windfarm (South),Wind,Onshore,No,Wind,,128.8,LV,Scotland,Scotland,,NS982134,302500,617500,2011,-3.54,55.44,T_CLDSW-1,,,,,
Scottish Power,Black Law I,Wind,Onshore,No,Wind,,124.2,HV,Scotland,Scotland,ML118BW,,290998,653991,2005,-3.74,55.77,T_BLLA-1,,,,,
Sembcorp Utilities,Wilton International ,Fossil Fuel,Conventional steam,Yes,Natural Gas,Oil,120,HV,England,North East,TS908WS,,458275,517359,1952,-1.1,54.55,T_WILCT-1,,,,,
Scottish Power,Arecleoch,Wind,Onshore,No,Wind,,120,HV,Scotland,Scotland,KA260SJ,,221500,578500,2010,-4.8,55.07,T_ARCHW-1,,,,,
SSE Group,"Hadyard Hill Windfarm - A,C",Wind,Onshore,No,Wind,,119.8,HV,Scotland,Scotland,,NX279982,227133,597446,2005,-4.72,55.24,T_HADHW-1,,,,,
SSE Group,Bhlaraidh Wind Farm,Wind,Onshore,No,Wind,,110.4,HV,Scotland,Scotland,,NH369203,238277,816488,2017,-4.68,57.21,T_BHLAW-1,,,,,
RES Group,Beinneun Wind Farm,Wind,Onshore,No,Wind,,108.8,LV,Scotland,Scotland,IV637YV,,,,2017,-4.97,57.1,T_BEINW-1,,,,,
Orsted,Gunfleet Sands 01,Wind,Offshore,No,Wind,,108,HV,England,South East,,,622317,208468,2010,1.22,51.73,T_GNFSW-1,,,,,
Boralex,Limekiln Windfarm,Wind,Onshore,No,Wind,,106,HV,Scotland,Scotland,,,,,2025,-3.76,58.56,T_LIMKW-1,,,,,
Part of PX Group,Fellside CHP,Fossil Fuel,CCGT,Yes,Natural Gas,,105,HV,England,North West,CA201PG,,303202,503793,1995,-3.49,54.42,E_FELL-1,,,,,
RWE Npower,Didcot GT,Fossil Fuel,Single cycle,No,Diesel/Gas Oil,,100,HV,England,South East,OX117YU,,451077,182210,1972,-1.26,51.54,E_DIDC1G,E_DIDC2G,E_DIDC3G,E_DIDC4G,,
River Nene,Heartlands,Fossil Fuel,Single cycle,,Natural Gas,,100,,England,West Midlands,B249FQ,,,,1998,1.83,52.61,,,,,,
SSE Group,Glendoe Hydro Power Station,Hydro,Natural Flow,No,Hydro,,100,HV,Scotland,Scotland,,NH406079,238719.4065,808777.049,2008,-4.67,57.14,T_GLNDO-1,,,,,
Vattenfall,Aberdeen,Wind,Offshore,No,Wind,,96.8,HV,Scotland,Scotland,,,395748,814283,2018,-1.97,57.22,T_ABRBO-1,,,,,
SSE Group,Dunmaglass Wind Farm,Wind,Onshore,No,Wind,,94.05,HV,Scotland,Scotland,,NH609227,264000,820120,2016,-4.26,57.25,T_DUNGW-1,,,,,
ERG,Creag Riabhach Wind Farm,Wind,Onshore,No,Wind,,92.4,,Scotland,Scotland,,,,,2023,-4.5,58.21,T_CREAW-1,,,,,
Venitent Energy Services,Farr,Wind,Onshore,No,Wind,,92,HV,Scotland,Scotland,IV137ZA,,273500,829000,2006,-4.1,57.33,T_FARR-1,T_FARR-2,,,,
RWE Npower,Robin Rigg West,Wind,Offshore,No,Wind,,90,HV,Scotland,Scotland,,,288785,540522,2010,-3.73,54.75,T_RRWW-1,,,,,
Orsted,Barrow,Wind,Offshore,No,Wind,,90,HV,England,North West,,,314978,455827,2006,-3.3,53.99,T_BOWLW-1,,,,,
Orsted,Burbo ,Wind,Offshore,No,Wind,,90,LV,England,North West,,,321476,399706,2008,-3.19,53.49,E_BURBO,,,,,
The Banks Group,Kype Muir Wind Farm,Wind,Onshore,No,Wind,,88.4,HV,Scotland,Scotland,ML106RE,,268129,640258,2019,-4.1,55.64,T_KPMRW-1,,,,,
RWE Npower,Robin Rigg East,Wind,Offshore,No,Wind,,84,HV,Scotland,Scotland,,,291005,542348,2010,-3.7,54.76,T_RREW-1,,,,,
Community Wind Power,Aikengall IIA,Wind,Onshore,No,Wind,,81.7,,Scotland,Scotland,,,,,2021,-3.21,55.95,T_AKGLW-2,,,,,
Fred Olsen Renewables,Mid Hill,Wind,Onshore,No,Wind,,75.9,LV,Scotland,Scotland,,,370540,786500,2013,-2.49,56.97,2__PSTAT002,,,,,
SSE Group,Errochty,Hydro,Natural Flow,No,Hydro,,75,HV,Scotland,Scotland,PH165SD,,280853.2565,765408.1951,1955,-4.01,56.71,T_ERRO-1,T_ERRO-2,T_ERRO-3,,,
Foresight Solar & Infrastructure VCT,Shotwick Solar Park,Solar,PV,No,Solar,,72.2,,Wales,,,,,,,-3.02,53.24,,,,,,
Greencoat Capital,Braes of Doune Wind Farm,Wind,Onshore,No,Wind,,72,HV,Scotland,Scotland,,,272590,710500,2007,-4.06,56.27,E_BRDUW-1,,,,,
SSE Group,Gordonbush Wind Farm,Wind,Onshore,No,Wind,,70,HV,Scotland,Scotland,,NC826113,284500,909500,2011,-3.95,58.1,T_GORDW-1,,,,,
Greencoat Capital,Corriegarth,Wind,Onshore,No,Wind,,69.5,HV,Scotland,Scotland,,,257500,813500,2017,-4.36,57.19,T_CGTHW-1,,,,,
Scottish Power,Dersalloch,Wind,Onshore,No,Wind,,69,HV,Scotland,Scotland,KA197NJ,,242500,603500,2016,-4.48,55.3,T_DRSLW-1,,,,,
Eneco Wind UK,Lochluichart,Wind,Onshore,No,Wind,,69,HV,Scotland,Scotland,,NH333680,232030,866235,2013,-4.82,57.65,T_LCLTW-1,,,,,
SSE Group,Fasnakyle,Hydro,Natural Flow,No,Hydro,,69,HV,Scotland,Scotland,,NH319296,226977.9735,827215.1828,1951,-4.87,57.3,T_FASN-1,E_FASN-4,T_FASN-2,E_FASN-3,,
Falck Renewables SpA,Kilbraur,Wind,Onshore,No,Wind,,67.5,HV,Scotland,Scotland,,NC788078,278550,907550,2008,-4.06,58.04,T_KILBW-1,,,,,
The Banks Group,Kype Extension Wind Farm,Wind,Onshore,No,Wind,,67.2,,Scotland,Scotland,ML10 6RE,,,,2024,-4.05,55.63,T_KYPEW-1,,,,,
SSE Group,Lerwick,Fossil Fuel,Single cycle,No,Diesel/Gas Oil,,67,LV,Scotland,Scotland,ZE10PS,,446456,1142790,1953,-1.16,60.17,,,,,,
Statkraft,Berry Burn,Wind,Onshore,No,Wind,,67,HV,Scotland,Scotland,IV362QH,,311550,840550,2014,-3.57,57.49,E_BRYBW-1,,,,,
Orsted,Gunfleet Sands 02,Wind,Offshore,No,Wind,,67,HV,England,South East,,,622317,208468,2010,1.25,51.73,T_GNFSW-2,,,,,
Venitent Energy Services,Galawhistle,Wind,Onshore,No,Wind,,66,HV,Scotland,Scotland,ML110SJ,,275443,629080,2017,-3.98,55.54,T_GLWSW-1,,,,,
SSE Group,Strathy North,Wind,Onshore,No,Wind,,66,HV,Scotland,Scotland,,NC820598,281550,957550,2015,-4.03,58.49,T_STRNW-1,,,,,
Eneco Wind UK,Moy,Wind,Onshore,No,Wind,,66,LV,Scotland,Scotland,,NH779370,276741,835240,2016,-4.05,57.39,E_MOYEW-1,,,,,
RWE Npower,Markinch,Bioenergy,Bioenergy,Yes,Biomass,,65,LV,Scotland,Scotland,KY76GU,,327988,701561,2014,-3.16,56.2,E_MARK-1,,,,,
Falck Renewables SpA,Millennium,Wind,Onshore,No,Wind,,65,HV,Scotland,Scotland,,NH265106,225679,810840,2008,-4.88,57.16,T_MILWW-1,,,,,
Fred Olsen Renewables,Pauls Hill,Wind,Onshore,No,Wind,,64.4,LV,Scotland,Scotland,,,311505,840495,2005,-3.48,57.45,2__PENEC002,,,,,
Scottish Power,Black Law II,Wind,Onshore,No,Wind,,63.43,HV,Scotland,Scotland,ML118EW,,289500,653500,2016,-3.76,55.76,T_BLLA-2,,,,,
Fred Olsen Renewables,Crystal Rig,Wind,Onshore,No,Wind,,62.5,LV,Scotland,Scotland,,,368000,667000,2003,-2.51,55.9,,,,,,
Fred Olsen Renewables,Brockloch Rig ,Wind,Onshore,No,Wind,,61.5,HV,Scotland,Scotland,,,265160,596516,2017,-4.12,55.24,T_WISTW-2,,,,,
SSE Group,Clunie,Hydro,Natural Flow,No,Hydro,,61.2,HV,Scotland,Scotland,PH165NF,,293345.8959,757790.003,1950,-3.74,56.7,M_CAS-CLU01,,,,,
Community Wind Power,Aikengall II,Wind,Onshore,No,Wind,,60.8,,Scotland,Scotland,,,,,2017,-2.49,55.92,T_AKGLW-2,,,,,
Scottish Power,Mark Hill,Wind,Onshore,No,Wind,,56,HV,Scotland,Scotland,KA260PX,,225000,585000,2011,-4.75,55.13,T_MKHLW-1,,,,,
Statkraft,Baillie,Wind,Onshore,No,Wind,,53,HV,Scotland,Scotland,KW147EP,,302550,965650,2013,-3.68,58.57,E_BABAW-1,,,,,
Temporis Capital,Blackcraig,Wind,Onshore,No,Wind,,52.9,HV,Scotland,Scotland,DG73DZ,,270500,582500,2018,-4.03,55.12,T_BLKWW-1,,,,,
The Banks Group,Middle Muir Wind Farm,Wind,Onshore,No,Wind,,51,HV,Scotland,Scotland,ML126SZ,,288964,625283,2018,-3.76,55.51,T_MIDMW-1,,,,,
Fred Olsen Renewables,Rothes,Wind,Onshore,No,Wind,,50.6,LV,Scotland,Scotland,,,318400,855900,2004,-3.37,57.59,2__PENEC001,,,,,
RWE Npower,Camster,Wind,Onshore,No,Wind,,50,LV,Scotland,Scotland,,,325800,947400,2013,-3.27,58.41,2__PEDGE003,,,,,
Red Rock Renewables,Afton Windfarm,Wind,Onshore,No,Wind,,50,,Scotland,Scotland,,,,,2018,-4.16,55.31,T_AFTOW-1,,,,,
Scottish Power,Cumberhead Windfarm,Wind,Onshore,No,Wind,,50,,Scotland,Scotland,,,,,,-3.87,55.57,T_CUMHW-1,,,,,
Scottish Power,Beinn an Tuirc III,Wind,Onshore,No,Wind,,49.95,,Scotland,Scotland,IV19 1LH,,,,2021,-5.58,55.57,E_BTUIW-3,,,,,
EDF Energy Customers Limited,Sutton Bridge Solar Farm,Solar,PV,No,Solar,,49.9,,England,East Midlands,,,,,2024,-0.15,52.78,T_SUTBS-1,,,,,
Greencoat Capital,Glen Kyllachy,Wind,Onshore,No,Wind,,48.5,HV,Scotland,Scotland,,,,,2021,-4.14,57.33,T_GLNKW-1,,,,,
EDF Energy,Corriemoillie,Wind,Onshore,No,Wind,,48.45,HV,Scotland,Scotland,IV232PQ,,234700,867700,2017,-4.77,57.67,T_CRMLW-1,,,,,
RES Group,Hill of Towie Wind Farm (GB),Wind,Onshore,No,Wind,,48.3,LV,Scotland,Scotland,AB556YU,,320000,860000,2012,-3.34,57.62,E_HLTWW-1,,,,,
Venitent Energy Services,Causeymire,Wind,Onshore,No,Wind,,48.3,HV,Scotland,Scotland,KW15XR,,312000,950000,2005,-3.51,58.43,,,,,,
Community Wind Power,Aikengall,Wind,Onshore,No,Wind,,48,,Scotland,Scotland,,,,,2009,-2.49,55.92,,,,,,
RES Group,Crossdykes Wind Farm,Wind,Onshore,No,Wind,,48,,Scotland,Scotland,DG11 2QL ,,,,2021,-3.17,55.19,T_CRDEW-1,T_CRDEW-2,,,,
Smartestenergy Limited,Broken Cross WF,Wind,Onshore,No,Wind,,48,,Scotland,Scotland,,,,,2025,-3.82,55.6,T_BROCW-1,,,,,
SSE Group,Gordonbush Ext,Wind,Onshore,No,Wind,,47.3,HV,Scotland,Scotland,,NC826113,,,2024,-3.94,58.12,T_GORDW-2,,,,,
E.ON,Steven's Croft,Bioenergy,Bioenergy,Yes,Biomass,,46,LV,Scotland,Scotland,,,312100,585100,2007,-3.38,55.15,,,,,,
SSE Group,Lochay,Hydro,Natural Flow,No,Hydro,,46,HV,Scotland,Scotland,,NN545350,256968.2024,734182.0673,1958,-4.32,56.48,,,,,,
Statkraft Markets Gmbh,Carraig Gheal Wind Farm,Wind,Onshore,No,Wind,,46,,Scotland,Scotland,,,,,2010,-5.28,56.34,T_CRGHW-1,,,,,
Lightsource BP,Teyrdan CIC,Solar,PV,No,Solar,,45.91605,,,,,,,,2016,-3.69,53.27,,,,,,
Lightsource BP,Teyrdan SPV,Solar,PV,No,Solar,,45.91605,,,,,,,,2016,-3.59,53.27,,,,,,
SSE Group,Rannoch,Hydro,Natural Flow,No,Hydro,,45,LV,Scotland,Scotland,PH173QP,,265618.9057,758237.4185,1930,-4.2,56.7,,,,,,
Greencoat Capital,Douglas West,Wind,Onshore,No,Wind,,44.85,LV,Scotland,Scotland,,,,,2014,-3.89,55.59,,,,,,
Scottish Power,Beinn an Tuirc II,Wind,Onshore,No,Wind,,43.7,HV,Scotland,Scotland,PA286QY,,173950,636900,2012,-5.58,55.56,E_BTUIW-2,,,,,
Greencoat Capital,Windy Rig,Wind,Onshore,No,Wind,,43.2,HV,Scotland,Scotland,,,,,2021,-4.14,55.23,T_WDRGW-1,,,,,
Venitent Energy Services,A'Chruach,Wind,Onshore,No,Wind,,42.6,HV,Scotland,Scotland,PA318BA,,197742,696597,2016,-5.26,56.12,T_ACHRW-1,,,,,
Greencoat Capital,Dalquhandy,Wind,Onshore,No,Wind,,42,,Scotland,Scotland,,,,,2023,0,0,T_DALQW-1,,,,,
Fred Olsen Renewables,Rothes II,Wind,Onshore,No,Wind,,41.4,LV,Scotland,Scotland,,,318500,850500,2013,-3.36,57.54,,,,,,
Vattenfall,Edinbane,Wind,Onshore,No,Wind,,41.4,HV,Scotland,Scotland,,,134353,850769,2009,-6.43,57.47,T_EDINW-1,,,,,
SSE Group,Fairburn Windfarm,Wind,Onshore,No,Wind,,40,LV,Scotland,Scotland,,NH426534,242550,852250,2009,-4.63,57.53,,,,,,
SSE Group,Clachan,Hydro,Natural Flow,No,Hydro,,40,LV,Scotland,Scotland,,NN192133,148598.0069,866496.6665,1955,-5.58,56.3,E_CLAC-1,,,,,
WPO UK Services,Airies,Wind,Onshore,No,Wind,,39.9,HV,Scotland,Scotland,,NX2662767127,226000,568000,2017,-4.72,54.98,E_AIRSW-1,,,,,
Greencoat Capital,Tom Nan Clach,Wind,Onshore,No,Wind,,39.1,HV,Scotland,Scotland,,,286500,834500,2019,-3.89,57.39,,,,,,
Community Wind Power,Calder Water,Wind,Onshore,No,Wind,,39,,Scotland,Scotland,,,,,2013,0,0,,,,,,
Falck Renewables SpA,Auchrobert,Wind,Onshore,No,Wind,,38.76,LV,Scotland,Scotland,,NS760392,275154,638500,2017,-3.98,55.62,E_ABRTW-1,,,,,
EDF Energy,Longpark,Wind,Onshore,No,Wind,,38,LV,Scotland,Scotland,TD12SW,,348050,642050,2009,-2.83,55.67,,,,,,
SSE Group,Achany Windfarm,Wind,Onshore,No,Wind,,38,LV,Scotland,Scotland,,NC480018,252350,904150,2010,-4.5,58,,,,,,
SSE Group,Deanie,Hydro,Natural Flow,No,Hydro,,38,HV,Scotland,Scotland,IV47JX,,219200,710100,1963,-4.57,57.29,,,,,,
Greencoat Capital,TwentyShilling Hill,Wind,Onshore,No,Wind,,37.8,LV,Scotland,Scotland,,,,,2015,0,0,T_TWSHW-1,,,,,
Falck Renewables SpA,Earlsburn,Wind,Onshore,No,Wind,,37.5,LV,Scotland,Scotland,,NS697882,269652,688422,2007,-4.1,56.07,,,,,,
SSE Group,Glenmoriston,Hydro,Natural Flow,No,Hydro,,37,HV,Scotland,Scotland,IV36YH,,230869.8249,812928.107,1957,-4.8,57.18,M_CAS-MOR01,,,,,
Vattenfall,Clashindarroch,Wind,Onshore,No,Wind,,36.9,HV,Scotland,Scotland,,,348214,839951,2015,-2.86,57.45,,,,,,
SSE Group,Drumderg Windfarm,Wind,Onshore,No,Wind,,36.8,LV,Scotland,Scotland,,NO180538,324500,748500,2008,-3.23,56.62,,,,,,
Scottish Power,Ewe Hill II,Wind,Onshore,No,Wind,,36.8,HV,Scotland,Scotland,DG112QG,,315000,580000,2017,-3.33,55.11,T_EWHLW-1,,,,,
Venitent Energy Services,Minsca,Wind,Onshore,No,Wind,,36.8,HV,Scotland,Scotland,DG112QE,,313821,581690,2008,-3.35,55.12,E_MINSW-1,,,,,
RWE Npower,Novar 2,Wind,Onshore,No,Wind,,36.8,HV,Scotland,Scotland,,,255500,871500,2012,-4.43,57.71,,,,,,
Muirhall Energy,Greengairs East Windfarm,Wind,Onshore,No,Wind,,36,,Scotland,Scotland,,,,,,-3.89,55.9,E_GRGRW-1,,,,,
Statkraft,Andershaw,Wind,Onshore,No,Wind,,35,HV,Scotland,Scotland,ML126SX,,283500,625500,2017,-3.85,55.51,E_ASHWW-1,,,,,
RES Group,Blary Hill,Wind,Onshore,No,Wind,,35,HV,Scotland,Scotland,PA29 6UZ,,,,2022,-5.63,55.57,E_BLARW-1,,,,,
SSE Group,Tummel,Hydro,Natural Flow,No,Hydro,,34,LV,Scotland,Scotland,PH165SB,,261249.1532,580838.546,1933,-4.02,56.71,,,,,,
SSE Group,Luichart,Hydro,Natural Flow,No,Hydro,,34,HV,Scotland,Scotland,IV149EW,,231809.6871,862261.3366,1954,-4.82,57.62,,,,,,
Part of Drax Group,Tongland,Hydro,Natural Flow,No,Hydro,,33,LV,Scotland,Scotland,DG64LT,,270138.1014,554580.9859,1935,-4.03,54.87,,,,,,
RES Group,Churchtown Farm Solar,Solar,PV,No,Solar,,31.59,,,,,,,,2015,0,0,,,,,,
Community Wind Power,Sanquhar,Wind,Onshore,No,Wind,,31.05,,Scotland,Scotland,,,,,2018,0,0,T_SANQW-1,,,,,
RES Group,Tormywheel,Wind,Onshore,No,Wind,,30.75,LV,Scotland,Scotland,,,294905,655232,2017,-3.68,55.78,,,,,,
RES Group,Solwaybank,Wind,Onshore,No,Wind,,30.4,HV,Scotland,Scotland,DG11 3HG,EN329579,,,2020,0,0,E_SWBKW-1,,,,,
EDF Energy,Burnfoot,Wind,Onshore,No,Wind,,30.1,LV,Scotland,Scotland,FK147JZ,,290135,703250,2010,-3.77,56.21,,,,,,
EDF Energy,West Benhar,Wind,Onshore,No,Wind,,30.1,,Scotland,Scotland,,,,,2023,0,0,,,,,,
Scira Offshore Energy,Hywind BMU 1,Wind,Offshore,No,Wind,,30,HV,Scotland,Scotland,,,433500,846500,2017,-1.69,57.5,E_HYWDW-1,,,,,
Scottish Power,Halsary,Wind,Onshore,No,Wind,,30,HV,Scotland,Scotland,KW126UW,,,,2020,-3.4,58.43,T_HALSW-1,,,,,
Venitent Energy Services,Dalswinton,Wind,Onshore,No,Wind,,30,HV,Scotland,Scotland,DG20YB,,295000,589000,2008,-3.65,55.18,E_DALSW-1,,,,,
Falck Renewables SpA,West Browncastle,Wind,Onshore,No,Wind,,30,LV,Scotland,Scotland,,NS619426,261117,642821,2014,-4.21,55.66,,,,,,
Venitent Energy Services,Ardrossan,Wind,Onshore,No,Wind,,30,LV,Scotland,Scotland,KA227NU,,223500,642500,2004,-4.81,55.64,,,,,,
RockbySea,Coire Na Cloiche,Wind,Onshore,No,Wind,,30,,Scotland,Scotland,,,,,2019,-4.38,57.79,E_CNCLW-1,,,,,
Greencoat Capital,Stroupster,Wind,Onshore,No,Wind,,29.9,LV,Scotland,Scotland,,,334250,966250,2015,-3.13,58.58,,,,,,
Scottish Power,Dunlaw II,Wind,Onshore,No,Wind,,29.75,,Scotland,Scotland,TD26RA,,346582,657530,,-2.85,55.82,T_DNLWW-1,,,,,
Scottish Power,Hare Hill II,Wind,Onshore,No,Wind,,29.75,HV,Scotland,Scotland,KA184NW,,265931,613982,2016,-4.12,55.4,E_HRHLW-1,,,,,
Scottish Power,Beinn Tharsuinn,Wind,Onshore,No,Wind,,29.75,HV,Scotland,Scotland,IV191LH,,261700,881900,2005,-4.33,57.81,E_BETHW-1,,,,,
Scottish Power,Cruach Mhor,Wind,Onshore,No,Wind,,29.75,LV,Scotland,Scotland,PA223AE,,203500,687500,2004,-5.16,56.04,,,,,,
Scottish Power,Beinn an Tuirc I,Wind,Onshore,No,Wind,,29.7,LV,Scotland,Scotland,PA286QY,,173950,636900,2002,-5.58,55.55,,,,,,
Cubico Sustainable Investments,Penmanshiel ,Wind,Onshore,No,Wind,,28.7,LV,Scotland,Scotland,TD113RP,,380006,667129,2016,-2.32,55.9,,,,,,
Greencoat Capital,Drone Hill,Wind,Onshore,No,Wind,,28.6,LV,Scotland,Scotland,,,383719,667227,2012,-2.26,55.9,,,,,,
RES Group,Black Hill Wind Farm,Wind,Onshore,No,Wind,,28.6,LV,Scotland,Scotland,,NT730555,373000,656300,2007,-2.43,55.8,,,,,,
SSE Group,"Artfield Fell Windfarm - A,C",Wind,Onshore,No,Wind,,28.6,LV,Scotland,Scotland,,NX236659,223005,567000,2005,-4.77,54.97,,,,,,
Capital Dynamics UK,Whiteside Hill,Wind,Onshore,No,Wind,,28.5,HV,Scotland,Scotland,DG4 6LF,,,,2018,0,0,T_WHIHW-1,,,,,
RES Group,Kelburn Wind Farm (GB),Wind,Onshore,No,Wind,,28,LV,Scotland,Scotland,KA245LE,,224000,655000,2012,-4.81,55.76,,,,,,
SSE Group,Toddleburn Windfarm,Wind,Onshore,No,Wind,,27.6,HV,Scotland,Scotland,,NT433499,345050,653150,2010,-2.88,55.77,T_TDBNW-1,,,,,
Falck Renewables SpA,Ben Aketil,Wind,Onshore,No,Wind,,27.6,LV,Scotland,Scotland,,NG311485,132500,846500,2007,-6.46,57.43,,,,,,
Scottish Power,Green Knowes,Wind,Onshore,No,Wind,,27,LV,Scotland,Scotland,FK147YJ,,296850,707550,2008,-3.67,56.25,,,,,,
RWE Npower,Bad a Cheo,Wind,Onshore,No,Wind,,26.65,HV,Scotland,Scotland,,,316615,948900,2018,-3.43,58.42,T_BDCHW-1,,,,,
WPO UK Services,Quixwood Moor,Wind,Onshore,No,Wind,,26.65,,Scotland,Scotland,,NT 76067 64408,,,2017,0,0,,,,,,
Lightsource BP,Arkwright SPV,Solar,PV,No,Solar,,26.001155,,,,,,,,2016,0,0,,,,,,
RES Group,Glens of Foudland,Wind,Onshore,No,Wind,,26,LV,Scotland,Scotland,,,361496,837303,2009,-2.64,57.42,E_GLOFW-1,,,,,
EDF Energy,Burnhead Moss,Wind,Onshore,No,Wind,,26,LV,Scotland,Scotland,FK12JW,,288503,671903,2016,-3.79,55.93,,,,,,
Scottish Power,Hagshaw Hill II,Wind,Onshore,No,Wind,,26,LV,Scotland,Scotland,ML110RR,,278965,630750,2008,-3.92,55.56,,,,,,
RES Group,Dungavel,Wind,Onshore,No,Wind,,26,HV,Scotland,Scotland,,,267954,636995,2015,-4.1,55.61,,,,,,
RES Group,Glenchamber Wind Farm (GB),Wind,Onshore,No,Wind,,25.3,LV,Scotland,Scotland,DG80PB,,224474,564039,2016,-4.74,54.94,E_GLCHW-1,,,,,
Eneco Wind UK,Twinshiels,Wind,Onshore,No,Wind,,25,LV,Scotland,Scotland,,NO757723,375955,771728,2014,-2.4,56.84,,,,,,
RES Group,Minnygap (GB),Wind,Onshore,No,Wind,,25,HV,Scotland,Scotland,DG109PX,,307313,597397,2017,-3.46,55.26,T_MYGPW-1,,,,,
Falck Renewables SpA,Assel Valley,Wind,Onshore,No,Wind,,25,LV,Scotland,Scotland,,NX211938,223370,595995,2016,-4.78,55.23,E_ASLVW-1,,,,,
SSE Group,Inverawe,Hydro,Natural Flow,No,Hydro,,25,LV,Scotland,Scotland,PA351HQ,,202299.546,730929.4816,1963,-5.21,56.43,,,,,,
RES Group,Little Raith (GB),Wind,Onshore,No,Wind,,24.8,LV,Scotland,Scotland,KY50AX,,,,2020,0,0,,,,,,
RWE Npower,Rosehall,Wind,Onshore,No,Wind,,24.7,LV,Scotland,Scotland,,,249550,903550,2013,-4.55,58,,,,,,
Lightsource BP,Laceby CIC2,Solar,PV,No,Solar,,24.602465,,,,,,,,2017,0,0,,,,,,
Part of Drax Group,Glenlee,Hydro,Natural Flow,No,Hydro,,24,LV,Scotland,Scotland,DG73SF,,261221.3585,580243.4607,1935,-4.18,55.1,,,,,,
Part of Drax Group,Kendoon,Hydro,Natural Flow,No,Hydro,,24,LV,Scotland,Scotland,DG73UB,,261359.0734,589083.3994,1935,-4.18,55.18,,,,,,
SSE Group,Battery Point,Fossil Fuel,Single cycle,No,Diesel/Gas Oil,,23,HV,Scotland,Scotland,,,143150,932158,1952,-6.37,58.2,,,,,,
Eneco Wind UK,Burn of Whilk,Wind,Onshore,No,Wind,,22.5,LV,Scotland,Scotland,,ND293407,326232,939965,2015,-3.26,58.34,E_BNWKW-1,,,,,
Falck Renewables SpA,Kingsburn,Wind,Onshore,No,Wind,,22.5,LV,Scotland,Scotland,,NS668898,266606,686412,2016,-4.14,56.05,,,,,,
RES Group,Freasdail (GB),Wind,Onshore,No,Wind,,22.5,HV,Scotland,Scotland,PA296XR,,180721,660754,2017,-5.5,55.79,T_FSDLW-1,,,,,
Venitent Energy Services,Glenkerie,Wind,Onshore,No,Wind,,22,LV,Scotland,Scotland,ML126QL,,310453,628117,2012,-3.42,55.54,,,,,,
Scottish Power,Glen App,Wind,Onshore,No,Wind,,22,HV,Scotland,Scotland,KA260PG,,208000,573000,2017,-5,55.01,T_GNAPW-1,,,,,
Greencoat Capital,North Rhins,Wind,Onshore,No,Wind,,22,LV,Scotland,Scotland,,,201980,557960,2009,-5.09,54.88,,,,,,
Fred Olsen Renewables,Brockloch Rig 1,Wind,Onshore,No,Wind,,21.6,LV,Scotland,Scotland,,,261500,602500,1996,-4.18,55.3,,,,,,
RES Group,Cour Wind Farm,Wind,Onshore,No,Wind,,20.5,HV,Scotland,Scotland,PA286QL,,181005,648528,2017,-5.48,55.68,T_COUWW-1,,,,,
Engie Power,Scotia Wind (Craigengelt) Ltd,Wind,Onshore,No,Wind,,20,HV,Scotland,Scotland,FK79QS,,272451,686495,2010,-4.05,56.05,,,,,,
SSE Group,"Kilmorack Power Station -A,E",Hydro,Natural Flow,No,Hydro,,20,HV,Scotland,Scotland,,NH494442,249410,844225,1962,-4.51,57.46,,,,,,
SSE Group,"Aigas Power Station - A,E",Hydro,Natural Flow,No,Hydro,,20,HV,Scotland,Scotland,,NH474437,247395,843655,1962,-4.55,57.46,,,,,,
SSE Group,"Invergarry Power Station - A,E",Hydro,Natural Flow,No,Hydro,,19.975,HV,Scotland,Scotland,,NH319013,231930,801320,1956,-4.77,57.07,,,,,,
RWE Npower,An Suidhe,Wind,Onshore,No,Wind,,19.3,HV,Scotland,Scotland,,,200483,707563,2005,-5.22,56.22,T_ANSUW-1,,,,,
EDF Energy,Pearie Law,Wind,Onshore,No,Wind,,19.2,LV,Scotland,Scotland,EH558RT,,302205,659690,2016,-3.56,55.82,,,,,,
SSE Group,"Mossford Power Station - A,G",Hydro,Natural Flow,No,Hydro,,18.66,HV,Scotland,Scotland,,NH330633,233010.4264,863187.3669,1957,-4.8,57.63,,,,,,
SSE Group,"Grudie Bridge Power Station - A, G",Hydro,Natural Flow,No,Hydro,,18.66,LV,Scotland,Scotland,,NH310624,231315.68,862293.3698,1950,-4.83,57.62,,,,,,
SSE Group,"Shin Power Station-A,G",Hydro,Natural Flow,No,Hydro,,18.62,LV,Scotland,Scotland,,NH574974,257261.3273,897258.4795,1958,-4.41,57.94,,,,,,
SSE Group,Tangy Wind Farm - A,Wind,Onshore,No,Wind,,18.52,LV,Scotland,Scotland,,NR685282,167373,626330,2002,-5.68,55.48,,,,,,
Greencoat Capital,Kildrummy,Wind,Onshore,No,Wind,,18.4,LV,Scotland,Scotland,,,357655,815170,2013,-2.7,57.23,,,,,,
Scottish Power,Wether Hill,Wind,Onshore,No,Wind,,18.2,LV,Scotland,Scotland,DG73UG,,270000,594000,2007,-4.05,55.22,,,,,,
SSE Group,"Quoich Power Station - A, E, G",Hydro,Natural Flow,No,Hydro,,18.05,LV,Scotland,Scotland,,NH107012,216881.8432,800852.8905,1955,-5.02,57.06,,,,,,
SSE Group,Orrin Power Station- A,Hydro,Natural Flow,No,Hydro,,18,HV,Scotland,Scotland,,NH436546,246905,851695,1959,-4.56,57.53,,,,,,
Community Wind Power,Millour Hill,Wind,Onshore,No,Wind,,18,,Scotland,Scotland,,,,,2012,0,0,,,,,,
Community Wind Power,Wardlaw Wood,Wind,Onshore,No,Wind,,18,,Scotland,Scotland,,,,,2006,0,0,,,,,,
Eneco Wind UK,Tullo,Wind,Onshore,No,Wind,,17.5,LV,Scotland,Scotland,,NO757723,387283,785873,2010,-2.21,56.96,,,,,,
Scottish Power,Dun Law I,Wind,Onshore,No,Wind,,17.16,LV,Scotland,Scotland,TD26RA,,344600,657500,2000,-2.89,55.81,,,,,,
SSE Group,Culligran Power Station Unit 2 - A,Hydro,Natural Flow,No,Hydro,,17.1,HV,Scotland,Scotland,,NH378405,231877.3107,839888.3031,1962,-4.8,57.42,,,,,,
Venitent Energy Services,Novar,Wind,Onshore,No,Wind,,17,LV,Scotland,Scotland,IV170XJ,,255500,871000,1997,-4.43,57.71,,,,,,
SSE Group,"St Fillans Power Station - A, G",Hydro,Natural Flow,No,Hydro,,16.83,LV,Scotland,Scotland,,NN691246,269101.6039,724133.4206,1957,-4.12,56.39,,,,,,
SSE Group,"Finlarig Power Station - A,G",Hydro,Natural Flow,No,Hydro,,16.5,HV,Scotland,Scotland,,NN585345,257077.3479,733907.8186,1955,-4.32,56.48,T_FINL-1,,,,,
SSE Group,"Ceannacroc Power Station - A, E",Hydro,Natural Flow,No,Hydro,,16.5,LV,Scotland,Scotland,,NH224108,222745,810690,1956,-4.93,57.15,,,,,,
Greencoat Capital,Langhope Rig,Wind,Onshore,No,Wind,,16.4,LV,Scotland,Scotland,,,340519,615032,2013,-2.94,55.43,,,,,,
Falck Renewables SpA,Boyndie,Wind,Onshore,No,Wind,,16.3,LV,Scotland,Scotland,,NJ613641,364000,862000,2006,-2.6,57.65,,,,,,
SSE Group,Kirkwall,Fossil Fuel,Single cycle,No,Diesel/Gas Oil,,16,HV,Scotland,Scotland,KW151AN,,344667,1010985,1952,-2.96,58.98,,,,,,
RES Group,Earlseat Wind Farm (GB),Wind,Onshore,No,Wind,,16,LV,Scotland,Scotland,HY14TQ,,332961,698416,2013,-3.08,56.17,,,,,,
RWE Npower,Deucheran Hill (RO),Wind,Onshore,No,Wind,,15.8,LV,Scotland,Scotland,,,177000,643000,2001,-5.54,55.63,,,,,,
RWE Npower,Bowbeat (Roughside) - RO,Wind,Onshore,No,Wind,,15.6,LV,Scotland,Scotland,,,333000,646200,2002,-3.07,55.7,,,,,,
RWE Npower,Bowbeat (Emly Bank) - RO,Wind,Onshore,No,Wind,,15.6,LV,Scotland,Scotland,,,329600,647500,2002,-3.12,55.72,,,,,,
RES Group,Carscreugh,Wind,Onshore,No,Wind,,15.3,HV,Scotland,Scotland,,,225000,555000,2014,-4.73,54.86,,,,,,
Scottish Power,Clachan Flats,Wind,Onshore,No,Wind,,15.03,HV,Scotland,Scotland,PA268BJ,,217950,714520,2009,-4.94,56.29,E_CLFLW-1,,,,,
SSE Group,Pitlochry Power Station - A,Hydro,Natural Flow,No,Hydro,,15,HV,Scotland,Scotland,,NN936577,293515,757730,1950,-3.74,56.7,,,,,,
Falck Renewables SpA,Nutberry,Wind,Onshore,No,Wind,,15,LV,Scotland,Scotland,,NS777322,279021,635662,2013,-3.92,55.6,,,,,,
SSE Group,"Torr Achilty Power Station - A,E",Hydro,Natural Flow,No,Hydro,,15,LV,Scotland,Scotland,,NH446545,244418.3748,854546.6167,1954,-4.6,57.55,,,,,,
SSE Group,Livishie Power Station - A,Hydro,Natural Flow,No,Hydro,,15,LV,Scotland,Scotland,,NH353160,240245,817495,1962,-4.65,57.22,,,,,,
SSE Group,"Nant Power Station - A,E",Hydro,Natural Flow,No,Hydro,,15,HV,Scotland,Scotland,,NN016207,203606.804,723291.4042,1963,-5.18,56.36,T_NANT-1,,,,,
Lightsource BP,Firs Road CIC1,Solar,PV,No,Solar,,14.402485,,,,,,,,2017,0,0,,,,,,
Temporis Capital,Tullymurdoch,Wind,Onshore,No,Wind,,14.4,LV,Scotland,Scotland,PH118LH,,319575,752228,2018,-3.31,56.65,E_TLYMW-1,,,,,
Part of Drax Group,Earlstoun,Hydro,Natural Flow,No,Hydro,,14,LV,Scotland,Scotland,DG73SR,,261304.6735,583126.6451,1935,-4.18,55.12,,,,,,
WPO UK Services,Pates Hill,Wind,Onshore,No,Wind,,14,,Scotland,Scotland,,NT 00099 59791,,,2010,0,0,,,,,,
Fred Olsen Renewables,Crystal Rig III,Wind,Onshore,No,Wind,,13.8,HV,Scotland,Scotland,,,368562,672486,2016,-2.5,55.94,,,,,,
Scottish Power,Ewe Hill I,Wind,Onshore,No,Wind,,13.8,LV,Scotland,Scotland,DG112QG,,315000,580000,2016,-3.33,55.11,,,,,,
Scottish Power,Hare Hill I,Wind,Onshore,No,Wind,,13.2,LV,Scotland,Scotland,KA184NW,,265320,609703,2000,-4.13,55.36,,,,,,
Greencoat Capital,Errol,Solar,PV,No,Solar,,12.99942,LV,Scotland,Scotland,PH27NL,,321840,721031,2016,-3.27,56.38,,,,,,
Capital Dynamics UK,Sorbie,Wind,Onshore,No,Wind,,12.6,,Scotland,Scotland,,,,,2023,-4.79,55.66,,,,,,
Venitent Energy Services,Gordonstown Hill,Wind,Onshore,No,Wind,,12.5,LV,Scotland,Scotland,AB538LH,,371136,841396,2013,-2.48,57.46,E_GDSTW-1,,,,,
EPR,EPR Scotland Ltd,Bioenergy,Bioenergy,No,Biomass,Oil,12.5,HV,Scotland,Scotland,KY50HR,,319000,695100,2000,-3.31,56.14,,,,,,
Temporis Capital,Muirhall,Wind,Onshore,No,Wind,,12.3,LV,Scotland,Scotland,EH558LN,,300605,653760,2010,-3.59,55.77,,,,,,
EDF Energy,Rhodders,Wind,Onshore,No,Wind,,12.3,LV,Scotland,Scotland,FK147JZ,,288738,697461,2016,-3.79,56.16,,,,,,
Engie Power,Blantyre Muir Wind Energy Ltd,Wind,Onshore,No,Wind,,12.3,HV,Scotland,Scotland,G720TR,,268888,651781,2014,-4.09,55.74,,,,,,
Capital Dynamics UK,Falkirk Tod Hill,Wind,Onshore,No,Wind,,12.3,HV,Scotland,Scotland,FK5 4SJ,,,,2016,0,0,,,,,,
WPO UK Services,Dummuies,Wind,Onshore,No,Wind,,12.25,LV,Scotland,Scotland,,NJ5635836050,,,2007,0,0,,,,,,
Part of Drax Group,Carsfad,Hydro,Natural Flow,No,Hydro,,12,LV,Scotland,Scotland,DG73ST,,259672.5447,584952.2229,1935,-4.2,55.14,,,,,,
Scottish Power,Middleton,Wind,Onshore,No,Wind,,12,LV,Scotland,Scotland,G776PZ,,253158,656019,2013,-4.34,55.78,,,,,,
WPO UK Services,AOE,Wind,Onshore,No,Wind,,11.5,HV,Scotland,Scotland,,NS5802548945,257717,648148,2014,-4.27,55.71,,,,,,
Part of Drax Group,Bonnington,Hydro,Natural Flow,No,Hydro,,11,LV,Scotland,Scotland,ML119TB,,288851.2921,641742.8194,1927,-3.77,55.66,,,,,,
SSE Group,"Cashlie Power Station - A,C",Hydro,Natural Flow,No,Hydro,,11,LV,Scotland,Scotland,,NN507421,248530,741735,1959,-4.47,56.54,,,,,,
SSE Group,Loch Carnan,Fossil Fuel,Single cycle,No,Diesel/Gas Oil,,11,HV,Scotland,Scotland,,,83233,842636,1972,-7.27,57.36,,,,,,
EDF Energy,Burnfoot East,Wind,Onshore,No,Wind,,10.8,LV,Scotland,Scotland,FK147JZ,,,,2020,0,0,,,,,,
Engie Power,Cairnborrow Wind Energy Ltd,Wind,Onshore,No,Wind,,10.25,HV,Scotland,Scotland,AB544XP,,346153,841867,2017,-2.9,57.46,,,,,,
RES Group,Meikle Carewe Wind Farm (GB),Wind,Onshore,No,Wind,,10.2,LV,Scotland,Scotland,AB393QH,,383200,792000,2013,-2.28,57.02,,,,,,
SSE Group,Spurness Wind Farm II,Wind,Onshore,No,Wind,,10,LV,Scotland,Scotland,,HY606356,360531,1033828,2012,-2.69,59.19,,,,,,
Temporis Capital,Craig,Wind,Onshore,No,Wind,,10,HV,Scotland,Scotland,DG130NZ,,331995,586055,2007,-3.07,55.16,,,,,,
Venitent Energy Services,Westfield,Wind,Onshore,No,Wind,,10,LV,Scotland,Scotland,KY50HJ,,319640,695487,2013,-3.29,56.15,,,,,,
RES Group,Neilston (GB),Wind,Onshore,No,Wind,,10,LV,Scotland,Scotland,G784BZ,,245292,653952,2018,-4.47,55.75,,,,,,
SSE Group,"Cassley Power Station - A,C,E",Hydro,Natural Flow,No,Hydro,,10,LV,Scotland,Scotland,,NC396232,247325,901540,1959,-4.58,57.98,,,,,,
SSE Group,Arnish,Fossil Fuel,Single cycle,No,Diesel/Gas Oil,,10,HV,Scotland,Scotland,,,142229,930499,2000,-6.39,58.19,,,,,,
Octopus Energy Trading Limited,Arbroath Battery Storage,BESS,BESS,No,BESS,,34,,Scotland,Scotland,,,,,,-2.62,56.57,E_ARBRB-1,,,,,
SMS Energy Services Limited,Burwell Weirs Drove BESS,BESS,BESS,No,BESS,,50.533,,Scotland,Scotland,,,,,,0.31,52.28,E_BURWB-1,,,,,
Octopus Energy Trading Limited,Coupar Battery Storage,BESS,BESS,No,BESS,,41.314,,Scotland,Scotland,,,,,,-3.27,56.54,E_CUPAB-1,,,,,
Dollymans Storage Limited,Dollymans Storage,BESS,BESS,No,BESS,,102,,Scotland,Scotland,,,,,,0.56,51.6,E_DOLLB-1,,,,,
Tesla Motors Limited,Jamesfield 1 Battery Storage,BESS,BESS,No,BESS,,30,,Scotland,Scotland,,,,,,-3.3,56.34,E_JAMBB-1,,,,,
Tesla Motors Limited,Jamesfield 2 Battery Storage,BESS,BESS,No,BESS,,19,,Scotland,Scotland,,,,,,-3.3,56.14,E_JAMBB-2,,,,,
Tesla Motors Limited,Little Raith BESS,BESS,BESS,No,BESS,,50,,Scotland,Scotland,,,,,,-3.33,56.1,E_LITRB-1,,,,,
Tesla Motors Limited,Roaring Hill BESS,BESS,BESS,No,BESS,,50,,Scotland,Scotland,,,,,,-3.2,56.21,E_ROARB-1,,,,,
Octopus Energy Trading Limited,Shilton Lane BESS,BESS,BESS,No,BESS,,40,,Scotland,Scotland,,,,,,-4.48,55.9,E_SHILB-1,,,,,
,ZENOBE BLACKHILLOCK LIMITED,BESS,BESS,No,BESS,,209.993,,Scotland,Scotland,,,,,,-2.95,57.22,T_BLHLB-1,T_BLHLB-2,T_BLHLB-3,T_BLHLB-4,,
